id,description,latitude,longitude,name,categories,prefecture,address
190,,38.08099365,23.70381355,ΚΕΠ ΑΝΩ ΛΙΟΣΙΩΝ,24,51,ΑΝΩ ΛΙΟΣΙΑ
290,,37.75252914,26.98056984,Υ.Δ.Ε. Ν.Α. ΣΑΜΟΥ,46,30,ΜΥΚΑΛΗΣ 54
305,,35.31076431,23.79837036,ΔΗΜΟΣ ΑΝΑΤ. ΣΕΛΙΝΟΥ,13,48,ΚΑΜΠΑΝΟΣ ΧΑΝΙΩΝ
423,,39.71889496,22.7554245,ΔΗΜΟΣ ΑΓΙΑΣ,13,9,ΔΗΜΟΣ ΑΓΙΑΣ (40003 Αγιά)
460,,39.52277374,22.65336418,ΔΗΜΟΣ ΑΡΜΕΝΙΟΥ,13,9,ΑΡΜΕΝΙΟ 41500 ΛΑΡΙΣΑ
727,,39.12197113,23.72555733,ΔΗΜΟΣ ΣΚΟΠΕΛΟΥ,13,37,ΣΚΟΠΕΛΟΣ 37003
1051,,37.50191116,21.87812424,ΔΗΜΟΣ ΑΝΔΡΙΤΣΑΙΝΗΣ,13,28,ΔΗΜΑΡΧΕΙΟ ΑΝΔΡΙΤΣΑΙΝΑΣ
1140,,39.56145859,20.78972816,ΔΗΜΟΣ ΔΩΔΩΝΗΣ,13,17,ΔΩΔΩΝΗ 45500
1319,,37.93755341,21.67998314,ΔΗΜΟΣ ΤΡΙΤΑΙΑΣ,13,49,"ΣΤΑΥΡΟΔΡΟΜΙ Ν. ΑΧΑΪΑΣ, 25015"
1358,,39.1558075,20.98009682,ΚΕΠ Αρταίων,24,31,"ΠΕΡΙΦΕΡΕΙΑΚΗ ΟΔΟΣ 37, ΑΡΤΑ"
6,,37.99731445,23.78198433,ΓΕΕΘΑ/ΔΣΛ/4,56,51,"ΣΤΡΔΟ ΠΑΠΑΓΟΥ ΑΘΗΝΩΝ, ΜΕΣΟΓΕΙΩΝ  227-23"
1774,,37.50087357,23.45445251,ΤΕΛΩΝΕΙΟ ΠΟΡΟΥ,38,51,ΠΟΡΟΣ
1867,,35.51346207,24.02103996,Α' Δ.Ο.Υ. ΧΑΝΙΩΝ,26,48,ΤΖΑΝΑΚΑΚΗ 3 ΧΑΝΙΑ
7,,37.98748779,23.76223755,ΓΕΝΙΚΗ ΓΡΑΜΜΑΤΕΙΑ ΑΘΛΗΤΙΣΜΟΥ,27,51,"ΚΗΦΙΣΙΑΣ 7, 11523 ΑΘΗΝΑ"
8,,37.97949219,23.73362541,ΓΕΝΙΚΗ ΓΡΑΜΜΑΤΕΙΑ ΔΗΜΟΣΙΟΝΟΜΙΚΗΣ ΠΟΛΙΤΙΚΗΣ,27,51,"ΠΑΝΕΠΙΣΤΗΜΙΟΥ 25, 10165 ΑΘΗΝΑ"
9,,37.97917938,23.71664619,ΓΕΝΙΚΗ ΓΡΑΜΜΑΤΕΙΑ ΕΜΠΟΡΙΟΥ - ΓΕΝΙΚΗ ΓΡΑΜΜΑΤΕΙΑ ΚΑΤΑΝΑΛΩΤΗ,27,51,"ΠΛ. ΚΑΝΙΓΓΟΣ, 10181 ΑΘΗΝΑ"
2177,,38.37080765,26.13723946,Υ.Δ.Ε. Ν.Α. ΧΙΟΥ,46,19,"ΠΟΛΥΧΡΟΝΟΠΟΥΛΟΥ 6, ΧΙΟΣ"
2183,,39.47153473,22.07608795,Δ.Ο.Υ. ΠΑΛΑΜΑ,26,33,"Γρ. Λαμπράκη 34, ΠΑΛΑΜΑΣ"
10,,37.95090103,23.64110374,ΓΕΝΙΚΗ ΓΡΑΜΜΑΤΕΙΑ ΕΣΥΕ,27,51,ΠΕΙΡΑΙΩΣ 46 & ΕΠΟΝΙΤΩΝ 18510 ΠΕΙΡΑΙΑΣ
11,,37.97943878,23.7305336,ΓΕΝΙΚΗ ΓΡΑΜΜΑΤΕΙΑ ΙΣΟΤΗΤΑΣ,27,51,"ΔΡΑΓΑΤΣΑΝΙΟΥ 8, ΤΚ 10559 ΑΘΗΝΑ"
3705,,37.71088028,21.71991539,ΚΕΠ ΔΗΜΟΥ ΦΟΛΟΗΣ Ν. ΗΛΕΙΑΣ,24,28,ΛΑΛΑΣ ΤΚ 27066
3879,,40.01422882,20.55905914,Α.Τ. ΒΡΥΣΩΝ ΧΑΝΙΩΝ,3,48,ΒΡΥΣΕΣ ΑΠΟΚ.ΧΑΝΙΩΝ ΤΚ 73007
3953,,38.62208939,20.93097115,ΚΟΙΝΟΤΗΤΑ ΚΑΛΑΜΟΥ,22,50,"ΚΑΛΑΜΟΣ, Τ.Κ. 31081"
12,,37.98051071,23.73118401,ΓΕΝΙΚΗ ΓΡΑΜΜΑΤΕΙΑ ΚΟΙΝΩΝΙΚΩΝ ΑΣΦΑΛΙΣΕΩΝ,27,51,"ΣΤΑΔΙΟΥ 29,10110 ΑΘΗΝΑ"
4289,,37.96525955,23.69786644,3ο ΤΕΕ ΤΑΥΡΟΥ,59,51,ΕΣΤΑΥΡΩΜΕΝΟΥ
13,,37.95552063,23.7020359,ΓΕΝΙΚΗ ΓΡΑΜΜΑΤΕΙΑ ΠΛΗΡΟΦΟΡΙΑΚΩΝ ΣΥΣΤΗΜΑΤΩΝ,27,51,"ΧΑΝΔΡΗ  1 & ΘΕΣΣΑΛΟΝΙΚΗΣ 18346,ΑΘΗΝΑ"
5491,,38.36564255,26.13852119,ΙΕΚ ΜΕΓΑΡΩΝ,39,51,ΜΟΥΣΕΙΟΥ
6007,,40.67051697,22.93336296,Λ/Χ Πόρου,53,51,Δημοτική Αγορά Πόρου ΤΚ18020
6566,,39.7539978,20.64909744,ΝΗΠΙΑΓΩΓΕΙΟ ΖΙΤΣΗΣ,60,17,ΖΙΤΣΑ
14,,37.97574234,23.7398243,ΓΕΝΙΚΗ ΓΡΑΜΜΑΤΕΙΑ ΔΗΜΟΣΙΑΣ ΔΙΟΙΚΗΣΗΣ,27,51,"ΒΑΣ. ΣΟΦΙΑΣ  15, 10674"
7294,,39.63547134,22.41104317,5ο ΝΗΠΙΑΓΩΓΕΙΟ ΛΑΡΙΣΑΣ,60,9,ΛΑΠΠΑ
7551,,39.59962082,20.31023979,ΓΥΜΝΑΣΙΟ ΦΙΛΙΑΤΩΝ,52,22,ΦΙΛΙΑΤΕΣ
7673,,38.02209473,23.6998558,4ο ΝΗΠΙΑΓΩΓΕΙΟ ΙΛΙΟΥ,60,51,ΠΟΛΥΤΕΚΝΩΝ
8434,,36.60779572,27.84018326,ΤΕΕ ΣΥΜΗΣ,59,18,ΣΥΜΗ
7813,,37.99014282,23.34770966,2ο ΓΥΜΝΑΣΙΟ ΜΕΓΑΡΩΝ,52,51,ΜΟΥΣΕΙΟΥ
7919,,38.37580872,23.1106739,1ο ΤΕΕ ΑΛΙΑΡΤΟΥ,59,8,ΛΕΩΦΟΡΟΣ ΔΗΜΟΚΡΑΤΙΑΣ
8327,,38.04244995,23.69344711,10ο ΓΥΜΝΑΣΙΟ ΙΛΙΟΥ,52,51,ΖΑΓΟΡΙΟΥ
8028,,37.95528412,23.6462841,17ο ΝΗΠΙΑΓΩΓΕΙΟ ΠΕΙΡΑΙΑ,60,51,ΠΟΡΟΥ
8641,,36.89264297,27.29302216,8ο ΝΗΠΙΑΓΩΓΕΙΟ ΚΩ,60,18,ΚΟΡΑΗ
8902,,39.64417267,22.418396,16ο ΝΗΠΙΑΓΩΓΕΙΟ ΛΑΡΙΣΑΣ,60,9,ΜΥΡΩΝ
15,,37.98545837,23.76194,ΓΕΝΙΚΗ ΓΡΑΜΜΑΤΕΙΑ ΕΡΕΥΝΑΣ & ΤΕΧΝΟΛΟΓΙΑΣ,27,51,"ΜΕΣΟΓΕΙΩΝ 14-18 ΑΘΗΝΑ,  115 10"
10265,,39.0815506,20.86459732,ΝΗΠΙΑΓΩΓΕΙΟ ΒΙΓΛΑΣ,60,31,ΒΙΓΛΑ
16,,38.02297592,23.73039246,ΓΕΝΙΚΗ ΓΡΑΜΜΑΤΕΙΑ ΝΕΑΣ ΓΕΝΙΑΣ,27,51,"ΑΧΑΡΝΩΝ 417, 11143 ΑΘΗΝΑ"
17,,37.98043823,23.73278427,ΓΕΝΙΚΟ ΛΟΓΙΣΤΗΡΙΟ ΤΟΥ ΚΡΑΤΟΥΣ,27,51,"ΠΑΝΕΠΙΣΤΗΜΙΟΥ 37, 10165 ΑΘΗΝΑ"
10169,,39.15971375,20.98744392,1ο ΤΕΕ ΦΙΛΟΘΕΗΣ,59,31,ΦΙΛΟΘΕΗ ΑΡΤΑΣ
10424,,39.11380005,20.90096664,ΔΗΜΟΤΙΚΟ ΣΧΟΛΕΙΟ ΡΑΧΗΣ,60,31,ΡΑΧΗ
10648,,38.97500229,26.37511253,ΤΕΕ ΠΛΩΜΑΡΙΟΥ,59,26,ΠΛΩΜΑΡΙ
10777,,39.3496666,22.96514511,8ο ΓΥΜΝΑΣΙΟ ΒΟΛΟΥ,52,37,ΣΤΑΔΙΟΥ 1
10854,,40.29445648,21.79834938,3ο ΓΥΜΝΑΣΙΟ ΚΟΖΑΝΗΣ,52,52,ΠΑΝΟΡΑΜΑ
10917,,37.32894135,21.88463593,ΔΗΜΟΤΙΚΟ ΣΧΟΛΕΙΟ ΨΑΡΙ,60,32,ΨΑΡΙ
11199,,39.29470062,22.38858223,2ο ΓΥΜΝΑΣΙΟ ΦΑΡΣΑΛΩΝ,52,9,ΑΘΗΝΩΝ
11450,,39.46948242,22.07483864,2ο ΓΥΜΝΑΣΙΟ ΠΑΛΑΜΑ,52,33,ΠΑΛΑΜΑΣ
11568,,39.61820602,19.92146873,3ο ΤΕΕ ΚΕΡΚΥΡΑΣ,59,38,ΕΥΑΓΓ. ΝΑΠΟΛΕΟΝΤΑ 12
11587,,35.32747269,25.12665939,42ο ΝΗΠΙΑΓΩΓΕΙΟ ΗΡΑΚΛΕΙΟΥ,60,43,ΔΡΙΜΥΤΙΝΟΥ
11869,,39.66808319,20.85886192,ΓΡΑΦΕΙΟ Δ.Ε. ΙΩΑΝΝΙΝΩΝ,48,17,ΔΙΟΙΚΗΤΗΡΙΟ
18,,37.96178436,23.7514267,ΙΚΑ ΚΕΝΤΡΙΚΕΣ ΥΠΗΡΕΣΙΕΣ - ΠΑΠΑΔΙΑΜΑΝΤΟΠΟΥΛΟΥ 87 ΖΩΡΑΦΟΥ,57,51,ΚΟΛΟΚΟΤΡΩΝΗ 2-4
12078,,37.12337875,21.89262962,ΔΗΜΟΤΙΚΟ ΣΧΟΛΕΙΟ ΑΝΔΡΟΥΣΑΣ,60,32,ΕΥΑ
12261,,38.36448669,26.13480186,1ο ΓΥΜΝΑΣΙΟ ΧΙΟΥ,52,19,ΚΟΡΑΗ
12340,,38.04512787,23.77491951,ΙΕΚ ΑΜΑΡΟΥΣΙΟΥ,39,51,ΚΗΦΙΣΙΑΣ
12621,,39.36692047,22.91651917,10ο ΝΗΠΙΑΓΩΓΕΙΟ ΒΟΛΟΥ,60,37,ΛΑΡΙΣΗΣ
12664,,38.62366867,20.92673302,ΝΗΠΙΑΓΩΓΕΙΟ ΚΑΛΑΜΟΥ,60,50,ΚΑΛΑΜΟΣ
12979,,38.04854584,23.54253006,2ο ΤΕΕ ΕΛΕΥΣΙΝΑΣ,59,51,ΓΕΛΑΣ
13072,,39.5176506,22.68665123,ΝΗΠΙΑΓΩΓΕΙΟ ΝΙΚΗΣ,60,9,ΝΙΚΗ
13520,,37.9520607,23.65937614,4ο ΝΗΠΙΑΓΩΓΕΙΟ ΠΕΙΡΑΙΑ,60,51,ΑΜΟΡΓΟΥ
14023,,37.70218658,26.90534973,ΝΗΠΙΑΓΩΓΕΙΟ ΧΩΡΑΣ ΣΑΜΟΥ,60,30,ΧΩΡΑ
14573,,35.15638351,24.78507805,ΔΗΜΟΤΙΚΟ ΣΧΟΛΕΙΟ ΛΟΧΡΙΑΣ ΡΕΘΥΜΝΟΥ,60,3,ΛΟΧΡΙΑ
19,,37.98753738,23.73698425,Δ.Α. E.Π. ΠΟΛΙΤΙΣΜΟΣ,28,51,"ΘΕΜΙΣΤΟΚΛΕΟΥΣ 87, ΑΘΗΝΑ"
20,,37.98233032,23.72247887,Δ.Α. EQUAL,28,51,ΑΓΗΣΙΛΑΟΥ 23-25 ΑΘΗΝΑ
15870,,38.01302719,23.71759796,118ο ΝΗΠΙΑΓΩΓΕΙΟ ΑΘΗΝΑΣ,60,51,ΠΥΡΛΑ
15859,,37.94576645,23.7392807,4ο ΝΗΠΙΑΓΩΓΕΙΟ ΥΜΗΤΤΟΥ,60,51,ΥΨΗΛΑΝΤΟΥ
16334,,36.45362473,27.34680176,ΔΗΜΟΤΙΚΟ ΣΧΟΛΕΙΟ ΤΗΛΟΥ,60,18,ΤΗΛΟΣ
16580,,37.87642288,20.66977119,ΝΗΠΙΑΓΩΓΕΙΟ ΑΝΩ ΒΟΛΙΜΩΝ,60,4,ΑΝΩ ΒΟΛΙΜΕΣ
21,,37.98619461,23.70942688,Δ.Α. EΠ ΑΓΡΟΤΙΚΗ ΑΝΑΠΤΥΞΗ,28,51,"ΛΕΩΦΟΡΟΣ ΑΘΗΝΩΝ 58, ΑΘΗΝΑ"
17197,,35.34638977,24.97359085,ΝΗΠΙΑΓΩΓΕΙΟ ΜΑΡΑΘΟΥ,60,43,ΜΑΡΑΘΟΣ
22,,37.98084259,23.75728035,Ε.Υ. ΕΦΑΡΜΟΓΗΣ ΓΕΝΙΚΗΣ ΓΡΑΜΜΑΤΕΙΑΣ ΚΑΙ ΙΣΟΤΗΤΑΣ,28,51,"ΜΙΧΑΛΑΚΟΠΟΥΛΟΥ 87, ΑΘΗΝΑ"
23,,38.00090408,23.73112488,Δ.Α. ΑΛΙΕΙΑ,28,51,"ΙΕΡΟΣΟΛΥΜΩΝ 6, ΑΘΗΝΑ"
17745,,35.04289627,25.09550858,ΕΝΙΑΙΟ ΛΥΚΕΙΟ ΑΣΗΜΙΟΥ,52,43,ΑΣΗΜΙ
18031,,38.05302429,23.87759972,ΓΥΜΝΑΣΙΟ ΠΕΝΤΕΛΗΣ,52,51,ΤΣΑΚΩΝΑ
18316,,37.34607315,23.46813011,ΕΝΙΑΙΟ ΛΥΚΕΙΟ ΥΔΡΑΣ,52,51,ΥΔΡΑ
18416,,35,24.96666718,ΝΗΠΙΑΓΩΓΕΙΟ ΒΑΓΙΟΝΙΑΣ,60,43,ΒΑΓΙΟΝΙΑ
18462,,37.98941422,23.7033062,3ο ΤΕΕ ΑΘΗΝΑΣ,59,51,ΔΡΑΚΟΝΤΟΣ
24,,37.98706436,23.76577759,Δ.Α. ΑΝΤΑΓΩΝΙΣΤΙΚΟΤΗΤΑ,28,51,"ΜΕΣΟΓΕΙΩΝ 56, ΑΘΗΝΑ"
18564,,40.95083237,22.48880577,ΝΗΠΙΑΓΩΓΕΙΟ ΣΤΑΘΗ,60,14,ΣΤΑΘΗΣ
18723,,37.98373413,23.73038864,5ο ΤΕΕ ΑΘΗΝΑΣ ΕΣΠΕΡΙΝΟ,59,51,ΚΩΛΕΤΤΗ
18964,,38.04903412,23.81102371,3ο ΝΗΠΙΑΓΩΓΕΙΟ ΑΜΑΡΟΥΣΙΟΥ,60,51,ΦΛΟΙΑΣ
19151,,35.51623535,24.01880646,ΙΕΚ ΧΑΝΙΩΝ,39,48,"ΕΠΛ ΧΑΝΙΩΝ, ΠΡΟΦΗΤΗΣ ΗΛΙΑΣ"
19403,,39.55857468,21.74614525,18ο ΔΗΜΟΤΙΚΟ ΣΧΟΛΕΙΟ ΤΡΙΚΑΛΩΝ,60,16,ΚΗΠΑΚΙ
19474,,38.05918503,23.7500248,1ο ΓΥΜΝΑΣΙΟ ΜΕΤΑΜΟΡΦΩΣΗΣ,52,51,ΚΟΡΙΝΘΟΥ
19894,,38.28917694,23.88772202,ΕΝΙΑΙΟ ΛΥΚΕΙΟ ΜΑΓΟΥΛΑΣ,52,51,ΟΜΗΡΟΥ
25,,37.97917938,23.71664619,Δ.Α. ΑΤΤΙΚΗΣ,28,51,"ΛΕΩΦ. ΣΥΓΓΡΟΥ 98-100, ΑΘΗΝΑ"
20416,,37.97483063,23.72803307,ΚΕΣΥΠ ΥΠΕΠΘ,19,51,ΕΡΜΟΥ
26,,37.97917938,23.71664619,Δ.Α. ΟΔΙΚΟΙ ΑΞΟΝΕΣ,28,51,"Λ. ΜΕΣΟΓΕΙΩΝ 109-111, ΑΘΗΝΑ"
20270,,38.46728516,23.59710884,ΓΡΑΦΕΙΟ ΦΥΣΙΚΗΣ ΑΓΩΓΗΣ ΕΥΒΟΙΑΣ,48,6,ΚΡΙΕΖΗ
21271,,36.98831558,24.67677879,Κ.Λ. Χίου,53,19,ΝΕΩΡΕΙΩΝ 2 ΤΚ82100
20489,,35.36551285,24.50191879,ΕΣΠΕΡΙΝΟ ΕΠΑΛ ΡΕΘΥΜΝΟΥ,67,3,Δασκαλάκη
20517,,37.63243484,22.73362541,ΓΡΑΦΕΙΟ Δ. Ε. ΑΡΓΟΛΙΔΑΣ,48,35,Μακαρίου
20667,,37.98145676,23.64886665,Α.Τ. ΣΠΕΤΣΩΝ,3,51,"ΣΠΕΤΣΕΣ, ΤΚ 18050"
27,,37.97917938,23.71664619,"Ε.Υ. ΣΥΝΤΟΝΙΣΜΟΥ Ε.Π. ""ΠΕΡΙΒΑΛΛΟΝ & ΑΕΙΦΟΡΟΣ ΑΝΑΠΤΥΞΗ""",28,51,"ΙΤΕΑΣ 2 & ΕΥΡΥΤΑΝΙΑΣ,ΑΘΗΝΑ"
28,,38.0021019,23.77489281,Δ.Α. ΣΑΣΑ,28,51,"ΑΓ. ΣΟΦΙΑΣ 10, Ν. ΨΥΧΙΚΟ"
29,,37.97917938,23.71664619,Δ.Α. ΥΓΕΙΑΣ-ΠΡ.,28,51,ΓΛΑΔΣΤΩΝΟΣ 1Α 106 77 ΑΘΗΝΑ
30,,37.97917938,23.71664619,Ε.Υ Ε.Π. ΕΚΠΑΙΔΕΥΣΗ ΚΑΙ ΑΡΧΙΚΗ ΕΠΑΓΓΕΛΜΑΤΙΚΗ ΚΑΤΑΡΤΙΣΗ (ΕΠΕΑΕΚ),28,51,"ΠΙΤΤΑΚΟΥ 2 & ΠΕΡΙΑΝΔΡΟΥ, ΑΘΗΝΑ"
31,,37.97718048,23.7316227,Ε.Υ Ε.Π. ΚτΠ,28,51,"ΛΕΚΚΑ 23-25, 10562, ΑΘΗΝΑ"
32,,37.97112274,23.72535133,Ε.Υ. ΟΠΣ,28,51,"ΑΓ. ΦΙΛΟΘΕΗΣ 2, 10558 ΑΘΗΝΑ"
33,,37.98085785,23.73249054,ΕΘΝΙΚΗ ΒΙΒΛΙΟΘΗΚΗ ΤΗΣ ΕΛΛΑΔΟΣ,43,51,"ΠΑΝΕΠΙΣΤΗΜΙΟΥ 32, 10679 ΑΘΗΝΑ"
34,,37.967659,23.69731331,ΕΘΝΙΚΟ ΚΕΝΤΡΟ ΔΗΜΟΣΙΑΣ ΔΙΟΙΚΗΣΗΣ,43,51,"ΠΕΙΡΑΙΩΣ 211,17778 ΤΑΥΡΟΣ"
312,,35.05384827,25.41001892,ΔΗΜΟΣ ΒΙΑΝΝΟΥ,13,43,ΑΝΩ ΒΙΑΝΝΟΣ  70004
35,,37.98658371,23.72939301,ΕΘΝΙΚΟ ΤΥΠΟΓΡΑΦΕΙΟ,43,51,"ΚΑΠΟΔΙΣΤΡΙΟΥ 34, ΑΘΗΝΑ"
36,,37.97572327,23.72907257,ΕΙΔΙΚΟ ΛΗΞΙΑΡΧΕΙΟ,43,51,"ΜΗΤΡΟΠΟΛΕΩΣ 60, 10563, ΑΘΗΝΑ"
37,,37.98564911,23.75621986,ΕΛΕΓΚΤΙΚΟ ΣΥΝΕΔΡΙΟ,43,51,"ΒΟΥΡΝΑΖΟΥ 4, 10168 ΑΘΗΝΑ"
38,,37.96068954,23.73701668,ΚΤΠ Α.Ε.,43,51,ΗΛΙΟΥΠΟΛΕΩΣ 2 & ΚΑΣΣΙΟΠΗΣ
39,,37.98146057,23.75897217,Μ.Ο.Δ.,28,51,"ΜΙΧΑΛΑΚΟΠΟΥΛΟΥ 103, ΑΘΗΝΑ"
40,,37.98271561,23.72775078,ΜΕΤΟΧΙΚΟ ΤΑΜΕΙΟ ΠΟΛΙΤΙΚΩΝ ΥΠΑΛΛΗΛΩΝ,43,51,ΛΥΚΟΥΡΓΟΥ 12 & ΑΘΗΝΑΣ 10551
41,,37.98633957,23.72996902,ΟΡΓΑΝΙΣΜΟΣ ΓΕΩΡΓΙΚΩΝ ΑΣΦΑΛΙΣΕΩΝ (Ο.Γ.Α.),43,51,"ΠΑΤΗΣΙΩΝ 30, 10170 ΑΘΗΝΑ"
42,,37.98198318,23.70080376,ΣΓ ΠΕΙΡΑΙΑ,56,51,"ΣΤΡΔΟ ""ΒΑΣΙΛΟΠΟΥΛΟΥ"", ΠΕΤΡΟΥ ΡΑΛΛΗ 2,             11855 ΤΑΥΡΟΣ"
43,,37.97658539,23.75175285,ΣΥΝΗΓΟΡΟΣ ΤΟΥ ΠΟΛΙΤΗ,43,51,"ΧΑΤΖΗΓΙΑΝΝΗ ΜΕΞΗ 5, 11528 ΑΘΗΝΑ"
44,,37.99731445,23.78198433,2η ΔΙΕΥΘΥΝΣΗ ΣΤΡΑΤΟΛΟΓΙΑΣ,56,51,"ΣΤΡΔΟ ΠΑΠΑΓΟΥ ΑΘΗΝΩΝ, ΜΕΣΟΓΕΙΩΝ 227-231, 15451"
45,,37.98198318,23.70080376,ΣΧΟΛΗ ΣΤΡΑΤΟΛΟΓΙΚΟΥ,56,51,"ΣΤΡΔΟ ""ΒΑΣΙΛΟΠΟΥΛΟΥ"", ΠΕΤΡΟΥ ΡΑΛΛΗ 2,           11855 ΤΑΥΡΟΣ"
46,,37.98022461,23.73142052,ΓΕΝΙΚΗ ΓΡΑΜΜΑΤΕΙΑ ΤΟΠΙΚΗΣ ΑΥΤΟΔΙΟΙΚΗΣΗΣ,27,51,"ΣΤΑΔΙΟΥ 27 & ΔΡΑΓΑΤΣΑΝΙΟΥ, 10183"
47,,37.97563934,23.72987556,ΥΠ.ΕΣ.Δ.Δ.Α.,27,51,"ΕΥΑΓΓΕΛΙΣΤΡΙΑΣ 2,  10563"
48,,37.98911285,23.74537086,ΥΠ.ΠΕ.ΧΩ.Δ.Ε. - ΓΕΝΙΚΗ ΓΡΑΜΜΑΤΕΙΑ ΣΥΓΧΡΗΜΑΤΟΔΟΤΟΥΜΕΝΩΝ ΕΡΓΩΝ,27,51,"Χαριλάου Τρικούπη 182, Αθήνα"
49,,37.98805237,23.7593689,ΥΠ. ΠΕ.ΧΩ.Δ.Ε. (ΠΕΡΙΒΑΛΛΟΝ ΧΩΡΟΤΑΞΙΑ),27,51,"ΑΜΑΛΙΑΔΟΣ 17, ΑΘΗΝΑ 11523"
50,,37.9599762,23.73463058,ΥΠΗΡΕΣΙΑ ΑΝΑΠΤΥΞΗΣ ΠΛΗΡΟΦΟΡΙΚΗΣ,43,51,"ΦΙΛΟΞΕΝΟΥ 2-4 & ΣΠΙΝΘΑΡΟΥ,"
51,,37.97917938,23.71664619,ΥΠΟΥΡΓΕΙΟ ΑΝΑΠΤΥΞΗΣ - ΓΕΝΙΚΗ ΓΡΑΜΜΑΤΕΙΑ ΒΙΟΜΗΧΑΝΙΑΣ,27,51,"ΛΕΩΦ. ΜΕΣΟΓΕΙΩΝ 119, ΑΘΗΝΑ"
52,,38.01263809,23.83582306,ΥΠΟΥΡΓΕΙΟ ΕΘΝΙΚΗΣ ΑΜΥΝΑΣ,27,51,ΜΕΣΟΓΕΙΩΝ 151  ΧΟΛΑΡΓΟΣ  15 500
53,,38.04532623,23.79104805,ΥΠΟΥΡΓΕΙΟ ΕΘΝΙΚΗΣ ΠΑΙΔΕΙΑΣ ΚΑΙ ΘΡΗΣΚΕΥΜΑΤΩΝ,27,51,"ΑΝΔΡΕΑ ΠΑΠΑΝΔΡΕΟΥ 37, 15180 ΜΑΡΟΥΣΙ"
54,,37.94009781,23.6491642,ΥΠΟΥΡΓΕΙΟ ΕΜΠΟΡΙΚΗΣ ΝΑΥΤΙΛΙΑΣ,27,51,"ΓΡΗΓΟΡΙΟΥ  ΛΑΜΠΡΑΚΗ  150,  18518, ΠΕΙΡΑΙΑΣ"
55,,37.97917938,23.71664619,ΥΠΟΥΡΓΕΙΟ ΕΞΩΤΕΡΙΚΩΝ,27,51,"ΒΑΣ. ΣΟΦΙΑΣ  5, ΑΘΗΝΑ"
56,,37.9756813,23.73334312,ΥΠΟΥΡΓΕΙΟ ΕΘΝΙΚΗΣ ΟΙΚΟΝΟΜΙΑΣ ΓΕΝΙΚΗ ΓΡΑΜΜΑΤΕΙΑ ΕΠΕΝΔΥΣΕΩΝ & ΑΝΑΠΤΥΞΗΣ,27,51,"ΝΙΚΗΣ  5-7, 10180, ΑΘΗΝΑ"
57,,37.98853683,23.73340225,ΥΠΟΥΡΓΕΙΟ ΠΟΛΙΤΙΣΜΟΥ,27,51,"ΜΠΟΥΜΠΟΥΛΙΝΑΣ  20-22 10682, ΑΘΗΝΑ"
58,,37.91106796,23.74913788,ΔΗΜΟΣ ΑΡΓΥΡΟΥΠΟΛΗΣ,13,51,"ΛΕΩΦ. ΚΥΠΡΟΥ 67, ΑΡΓΥΡΟΥΠΟΛΗ"
59,,37.98810959,23.72773743,ΥΠΟΥΡΓΕΙΟ ΥΓΕΙΑΣ ΚΑΙ ΚΟΙΝΩΝΙΚΗΣ ΑΛΛΗΛΕΓΓΥΗΣ,27,51,"ΑΡΙΣΤΟΤΕΛΟΥΣ 17, ΑΘΗΝΑ"
60,,37.98748016,23.72667694,ΥΠΟΥΡΓΕΙΟ ΑΓΡΟΤΙΚΗΣ ΑΝΑΠΤΥΞΗΣ ΚΑΙ ΤΡΟΦΙΜΩΝ - ΓΕΝΙΚΗ ΓΡΑΜΜΑΤΕΙΑ ΔΑΣΩΝ & ΦΥΣΙΚΟΥ ΠΕΡΙΒΑΛΛΟΝΤΟΣ,27,51,"ΑΧΑΡΝΩΝ 2, ΑΘΗΝΑ"
61,,38.01983643,23.72912788,ΥΠΟΥΡΓΕΙΟ ΑΓΡΟΤΙΚΗΣ ΑΝΑΠΤΥΞΗΣ ΚΑΙ ΤΡΟΦΙΜΩΝ,27,51,"ΑΧΑΡΝΩΝ 381, ΑΘΗΝΑ"
62,,37.97432709,23.73398209,ΥΠΟΥΡΓΕΙΟ ΑΙΓΑΙΟΥ,27,51,"ΦΙΛΕΛΛΗΝΩΝ 7, 10557 ΑΘΗΝΑ"
63,,37.98208237,23.72350502,ΥΠΟΥΡΓΕΙΟ ΑΠΑΣΧΟΛΗΣΗΣ ΚΑΙ ΚΟΙΝΩΝΙΚΗΣ ΠΡΟΣΤΑΣΙΑΣ,27,51,"ΠΕΙΡΑΙΩΣ  40, ΑΘΗΝΑ"
64,,37.98814774,23.66441536,ΥΠΟΥΡΓΕΙΟ ΔΗΜΟΣΙΑΣ ΤΑΞΗΣ,27,51,"Π. ΚΑΝΕΛΛΟΠΟΥΛΟΥ 14,  10177"
65,,37.98939896,23.76947594,ΥΠΟΥΡΓΕΙΟ ΔΙΚΑΙΟΣΥΝΗΣ,27,51,ΜΕΣΟΓΕΙΩΝ 96
66,,37.95986176,23.71818924,ΥΠΟΥΡΓΕΙΟ ΤΥΠΟΥ ΚΑΙ ΜΕΣΩΝ ΜΑΖΙΚΗΣ ΕΝΗΜΕΡΩΣΗΣ,27,51,ΦΡΑΓΚΟΥΔΗ 11 & ΑΛΕΞ. ΠΑΝΤΟΥ
67,,38.00033951,23.78676414,ΥΠΟΥΡΓΕΙΟ ΜΕΤΑΦΟΡΩΝ & ΕΠΙΚΟΙΝΩΝΙΩΝ,27,51,"ΑΝΑΣΤΑΣΕΩΣ 2 KAI ΤΣΙΓΑΝΤΕ, 10191, ΠΑΠΑΓΟΥ"
68,,37.97917938,23.71664619,ΥΠΟΥΡΓΕΙΟ ΟΙΚΟΝΟΜΙΑΣ ΚΑΙ ΟΙΚΟΝΟΜΙΚΩΝ,27,51,"ΚΑΡ. ΣΕΡΒΙΑΣ 10,  10184, ΑΘΗΝΑ"
20855,,39.61930084,19.91958427,ΠΥΡΟΣΒΕΣΤΙΚΗ ΥΠΗΡΕΣΙΑ ΟΙΝΟΦΥΤΩΝ,21,8,"25ης ΜΑΡΤΙΟΥ 17, ΤΚ 32011, ΟΙΝΟΦΥΤΑ"
69,,37.97917938,23.71664619,ΥΠΟΥΡΓΕΙΟ ΟΙΚΟΝΟΜΙΑΣ ΚΑΙ ΟΙΚΟΝΟΜΙΚΩΝ- ΓΕΝΙΚΗ ΔΙΕΥΘΥΝΣΗ ΣΧΕΔΙΑΣΜΟΥ ΚΑΙ ΔΙΑΧΕΙΡΙΣΗΣ ΠΟΛΙΤΙΚΗΣ,27,51,ΚΟΡΝΑΡΟΥ 1 ΚΑΙ ΕΡΜΟΥ ΑΘΗΝΑ
70,,37.98651505,23.76023674,1η ΥΠΕ ΑΤΤΙΚΗΣ,66,51,"ΖΑΧΑΡΩΦ 3,  115 21 ΑΘΗΝΑ"
71,,38.05179214,23.90011406,ΑΝΑΡΡΩΤΗΡΙΟ ΠΕΝΤΕΛΗΣ (ΕΟΚΦ),70,51,"ΤΕΡΜΑ ΙΠΠΟΚΡΑΤΟΥΣ, ΠΑΛΑΙΑ ΠΕΝΤΕΛΗ, 15236"
72,,37.98787689,23.75458145,"ΑΝΤΙΚΑΡ/ΚΟ ΟΓΚΟΛ/ΚΟ ""ΑΓ. ΣΑΒΒΑΣ""",70,51,ΛΕΩΦ. ΑΛΕΞΑΝΔΡΑΣ 171 ΑΘΗΝΑ115 22
73,,37.97555161,23.74301338,ΜΕΓΑΡΟ ΣΤΑΘΑΤΟΥ,43,51,ΗΡΟΔΟΤΟΥ 1 ΑΘΗΝΑ
74,,37.95717239,23.6515255,2η ΥΠΕ ΠΕΙΡΑΙΩΣ & ΑΙΓΑΙΟΥ,66,51,ΘΗΒΩΝ 46-48 ΠΕΙΡΑΙΑΣ
75,,38.03773499,23.83765221,ΓΝ ΠΑΙΔΩΝ ΠΕΝΤΕΛΗΣ,70,51,ΙΠΠΟΚΡΑΤΟΥΣ 8 - ΠΑΛ.ΠΕΝΤΕΛΗ - 152 35
76,,38.01772308,23.71897316,ΔΗΜΟΣ ΑΓ. ΑΝΑΡΓΥΡΩΝ,13,51,ΔΗΜΟΚΡΑΤΙΑΣ & ΙΩΑΝΝΟΥ ΜΕΡΛΑ 13561 ¶ΓΙΟΙ ΑΝΑΡΓΥΡΟΙ
77,,37.9895401,23.65998459,ΔΗΜΟΣ ΑΓ. ΒΑΡΒΑΡΑΣ,13,51,"ΠΛ. ΠΑΝΑΓΙΑΣ ΕΛΕΟΥΣΑΣ ΕΠΙ ΤΗΣ ΟΔΟΥ ΑΡΙΣΤΟΜΕΝΟΥΣ 8, ΑΓΙΑ ΒΑΡΒΑΡΑ"
78,,37.9447403,23.73415565,ΔΗΜΟΣ ΑΓ. ΔΗΜΗΤΡΙΟΥ,13,51,"ΑΓ. ΔΗΜΗΤΡΙΟΥ 55, 17343"
79,,37.96276093,23.67441177,ΔΗΜΟΣ ΑΓ. ΙΩΑΝΝΗ ΡΕΝΤΗ,13,51,ΜΠΙΧΑΚΗ 8 ΑΓ. Ι. ΡΕΝΤΗΣ 18233
80,,38.01383591,23.82441902,ΔΗΜΟΣ ΑΓ. ΠΑΡΑΣΚΕΥΗΣ,13,51,ΜΕΣΟΓΕΙΩΝ 463 15343 ΑΓΙΑ ΠΑΡΑΣΚΕΥΗ
81,,38.14158249,23.85887718,ΔΗΜΟΣ ΑΓ. ΣΤΕΦΑΝΟΥ,13,51,"ΠΕΝΤΖΕΡΙΔΗ 3,14565 ΑΓ. ΣΤΕΦΑΝΟΣ"
82,,37.98856735,23.72533417,ΔΗΜΟΣ ΑΘΗΝΑΙΩΝ,13,51,ΛΙΟΣΙΩΝ  22
83,,37.99862289,23.67551422,ΔΗΜΟΣ ΑΙΓΑΛΕΩ,13,51,"ΙΕΡΑ ΟΔΟΣ 364 & ΚΑΛΒΟΥ, 12243 ΑΙΓΑΛΕΩ"
84,,37.7453537,23.42988014,ΔΗΜΟΣ ΑΙΓΙΝΑΣ,13,51,"ΧΡΗΣΤΟΥ ΛΑΔΑ 1,  18010 ΑΙΓΙΝΑ"
85,,37.911026,23.71304703,ΔΗΜΟΣ ΑΛΙΜΟΥ,13,51,ΑΡΙΣΤΟΤΕΛΟΥΣ  53 17455 ΑΛΙΜΟΣ
86,,38.04881287,23.80344391,ΔΗΜΟΣ ΑΜΑΡΟΥΣΙΟΥ,13,51,"ΒΑΣ. ΣΟΦΙΑΣ 9 & ΔΗΜ.ΜΟΣΧΑ 15124, ΜΑΡΟΥΣΙ"
87,,37.94285583,23.51927948,ΔΗΜΟΣ ΑΜΠΕΛΑΚΙΩΝ,13,51,"ΣΙΚΙΝΝΟΥ 2,18902 ΑΜΠΕΛΑΚΙΑ"
88,,38.08099365,23.70381355,ΔΗΜΟΣ ΑΝΩ ΛΙΟΣΙΩΝ,13,51,ΔΗΜΑΡΧΕΙΟ ΑΝΩ ΛΙΟΣΙΩΝ
89,,37.96757507,23.99505043,ΔΗΜΟΣ ΑΡΤΕΜΙΔΑΣ,13,51,"Λεωφόρος Καραμανλή, 19016"
90,,38.08163071,23.5966568,ΔΗΜΟΣ ΑΣΠΡΟΠΥΡΓΟΥ,13,51,"Λ. ΔΗΜΟΚΡΑΤΙΑΣ 18, 19300 ΑΣΠΡΟΠΥΡΓΟΣ"
91,,38.5,24.13333321,ΔΗΜΟΣ ΑΥΛΩΝΟΣ,13,51,"ΠΛΑΤΕΙΑ ΖΥΓΟΜΑΛΑ 19011, ΑΥΛΩΝΑΣ ΑΤΤΙΚΗΣ"
92,,38.07014084,23.73918343,ΔΗΜΟΣ ΑΧΑΡΝΩΝ,13,51,ΦΙΛΑΔΕΛΦΕΙΑΣ 87 & ΜΠΟΣΔΑ
93,,37.82830048,23.80347824,ΔΗΜΟΣ ΒΑΡΗΣ,13,51,"ΒΑΣ. ΚΩΝ/ΝΟΥ 25, 166 72"
94,,38.15179443,23.26326561,ΔΗΜΟΣ ΒΙΛΛΙΩΝ,13,51,"ΙΩΑΝ.ΣΑΚΕΛΑΡΙΟΥ 30, 19012 ΒΙΛΙΑ"
95,,37.83638,23.76655197,ΔΗΜΟΣ ΒΟΥΛΑΣ,13,51,ΛΕΩΦ. ΚΑΡΑΜΑΝΛΗ 18
96,,37.81602097,23.78027534,ΔΗΜΟΣ ΒΟΥΛΙΑΓΜΕΝΗΣ,13,51,"ΑΦΡΟΔΙΤΗΣ 2, 16671 ΒΟΥΛΙΑΓΜΕΝΗ"
97,,37.95677948,23.7624855,ΔΗΜΟΣ ΒΥΡΩΝΑ,13,51,"ΚΑΡΑΟΛΗ ΔΗΜΗΤΡΙΟΥ 34-36, 16233 ΒΥΡΩΝΑΣ"
98,,38.04611206,23.71559715,ΔΗΜΟΣ ΓΑΛΑΤΣΙΟΥ,13,51,ΑΡΧΙΜΗΔΟΥΣ 2 & ΙΠΠΟΚΡΑΤΟΥΣ
99,,38.02763367,23.86144829,ΔΗΜΟΣ ΓΕΡΑΚΑ,13,51,"ΘΕΣ//ΚΗΣ & ΒΟΙΩΤΙΑΣ 10, 15344 ΓΕΡΑΚΑΣ"
100,,37.98461914,23.84062767,ΔΗΜΟΣ ΓΛΥΚΩΝ ΝΕΡΩΝ,13,51,"ΛΕΩΦ. ΛΑΥΡΙΟΥ & ΚΟΡΥΤΣΑΣ 2, 15354 - ΓΛΥΚΑ ΝΕΡΑ"
101,,37.86600494,23.74759674,ΔΗΜΟΣ ΓΛΥΦΑΔΑΣ,13,51,"ΑΛΣΟΥΣ 15, 16674 ΓΛΥΦΑΔΑ"
102,,37.95013809,23.73431969,ΔΗΜΟΣ ΔΑΦΝΗΣ,13,51,"ΕΛΛΗΣ 16 & ΚΑΝΑΡΗ, ΤΚ 172 35, ΔΑΦΝΗ"
103,,37.94710541,23.62939072,ΔΗΜΟΣ ΔΡΑΠΕΤΣΩΝΑΣ,13,51,ΑΓ. ΠΟΛΥΤΕΧΝΕΙΟΥ & Γ. ΚΑΡΑ'Ι'ΣΚΑΚΗ 18648 ΔΡΑΠΕΤΣΩΝΑ
104,,38.05797577,23.54308891,ΔΗΜΟΣ ΕΛΕΥΣΙΝOΣ,13,51,"ΧΑΤΖΗΔΑΚΗ ΚΑΙ ΔΗΜΗΤΡΟΣ, 19200 ΕΛΕΥΣΙΝΑ"
105,,37.87117004,23.76377869,ΔΗΜΟΣ ΕΛΛΗΝΙΚΟΥ,13,51,ΟΔΟΣ 25η και ΑΓΙΑΣ ΤΡΙΑΔΟΣ(ΠΕΡΙΟΧΗ ΠΡΩΗΝ ΑΝΑΤΟΛΙΚΟΥ ΑΕΡΟΔΡΟΜΙΟΥ)
106,,38.04397583,23.74287415,ΔΗΜΟΣ ΖΕΦΥΡΙΟΥ,13,51,"ΠΛΑΤΕΙΑ ΗΡΩΩΝ ΠΟΛΥΤΕΧΝΕΙΟΥ 1, 13451 ΖΕΦΥΡΙ ΑΤΤΙΚΗΣ"
107,,37.97633362,23.77161217,ΔΗΜΟΣ ΖΩΓΡΑΦΟΥ,13,51,Γ. ΖΩΓΡΑΦΟΥ 7
108,,37.94484711,23.73308372,ΔΗΜΟΣ ΗΛΙΟΥΠΟΛΗΣ,13,51,ΣΟΦ. ΒΕΝΙΖΕΛΟΥ & ΜΑΡ.  ΑΝΤΥΠΑ
109,,38.04593277,23.76610184,ΔΗΜΟΣ ΗΡΑΚΛΕΙΟΥ,13,51,"ΣΤ.  ΚΑΡΑΓΙΩΡΓΗ 2, 14121 ΗΡΑΚΛΕΙΟ"
110,,38.02986526,23.70774841,ΔΗΜΟΣ ΙΛΙΟΥ,13,51,"ΚΑΛΧΟΥ 48-50, 13110  ΙΛΙΟΝ"
111,,37.9682045,23.76120377,ΔΗΜΟΣ ΚΑΙΣΑΡΙΑΝΗΣ,13,51,"ΚΛΑΖΟΜΕΝΩΝ & ΒΡΥΟΥΛΩΝ, 16121"
112,,37.961483,23.70601082,ΔΗΜΟΣ ΚΑΛΛΙΘΕΑΣ,13,51,ΜΑΤΖΑΓΡΙΩΤΑΚΗ 76 17676 ΚΑΛΛΙΘΕΑ
113,,37.83941269,23.92754936,ΔΗΜΟΣ ΚΑΛΥΒΙΩΝ ΘΟΡΙΚΟΥ,13,51,ΛΕΩΦΟΡΟΣ ΑΘΗΝΩΝ & ΡΗΓΑ ΦΕΡΑΙΟΥ 19010 ΚΑΛΥΒΙΑ
114,,38.05512619,23.69782829,ΔΗΜΟΣ ΚΑΜΑΤΕΡΟΥ,13,51,"Λ. ΦΥΛΗΣ 54, 13451 ΚΑΜΑΤΕΡΟ"
115,,37.80925369,23.97634697,ΔΗΜΟΣ ΚΕΡΑΤΕΑΣ,13,51,"ΛΕΩΦΟΡΟΣ ΑΘΗΝΩΝ ΣΟΥΝΙΟΥ 37, 19001"
116,,37.96245575,23.62195206,ΔΗΜΟΣ ΚΕΡΑΤΣΙΝΙΟΥ,13,51,"ΕΛ. ΒΕΝΙΖΕΛΟΥ 200, 18756 ΚΕΡΑΤΣΙΝΙ"
117,,38.07397461,23.83170319,ΔΗΜΟΣ ΚΗΦΙΣΙΑΣ,13,51,"ΔΙΟΝΥΣΟΥ ΚΑΙ ΜΥΡΣΙΝΗΣ , 14562 ΚΗΦΙΣΙΑ"
118,,37.9792366,23.64241219,ΔΗΜΟΣ ΚΟΡΥΔΑΛΛΟΥ,13,51,"ΓΡΗΓΟΡΙΟΥ ΛΑΜΠΡΑΚΗ 231, 18110 ΚΟΡΥΔΑΛΛΟΣ"
119,,37.90024567,23.87239265,ΔΗΜΟΣ ΚΡΩΠΙΑΣ,13,51,"ΒΑΣ. ΚΩΝ/ΝΟΥ 47, 19400 ΚΟΡΩΠΙ"
120,,36.23413467,22.96819115,ΔΗΜΟΣ ΚΥΘΗΡΩΝ,13,51,"ΧΩΡΑ ΚΥΘΗΡΩΝ, 80100"
121,,38.0683136,23.7856636,ΔΗΜΟΣ ΛΥΚΟΒΡΥΣΗΣ,13,51,"ΑΓΙΑΣ ΒΑΡΒΑΡΑΣ 25, 14123 ΛΥΚΟΒΡΥΣΗ"
122,,38.07474136,23.49716949,ΔΗΜΟΣ ΜΑΝΔΡΑΣ,13,51,ΣΤΡ. Ν. ΡΟΚΑ 45 19600
123,,38.15754318,23.95809937,ΔΗΜΟΣ ΜΑΡΑΘΩΝΟΣ,13,51,"ΟΙΝΟΗΣ 6, 19007, ΜΑΡΑΘΩΝΑΣ"
124,,37.88274002,23.93272018,ΔΗΜΟΣ ΜΑΡΚΟΠΟΥΛΟΥ ΜΕΣΟΓΑΙΑΣ,13,51,"ΚΕΝΤΡΙΚΗ ΠΛΑΤΕΙΑ ΔΗΜΟΣΘΕΝΟΥΣ ΣΩΤΗΡΙΟΥ, 19003"
125,,37.99484634,23.34459114,ΔΗΜΟΣ ΜΕΓΑΡΕΩΝ,13,51,"ΧΡ. ΜΩΡΑΙΤΟΥ & Γ. ΜΑΥΡΟΥΚΑΚΗ, 19100 ΜΕΓΑΡΑ"
126,,37.59725571,23.37044716,ΔΗΜΟΣ ΜΕΘΑΝΩΝ,13,51,"ΑΓΙΑΣ ΠΑΡΑΣΚΕΥΗΣ 5, 18030 ΜΕΘΑΝΑ"
127,,38.05771637,23.83765221,ΔΗΜΟΣ ΜΕΛΙΣΣΙΩΝ,13,51,ΚΑΛΑΜΒΟΚΗ 2Α 15127 ΜΕΛΙΣΣΙΑ
128,,38.06800842,23.76625824,ΔΗΜΟΣ ΜΕΤΑΜΟΡΦΩΣΗΣ,13,51,"ΙΩ. ΡΑΛΛΗ & ΔΗΜΑΡΧΕΙΟΥ 1, ΜΕΤΑΜΟΡΦΩΣΗ, 14452"
129,,37.9541893,23.68444061,ΔΗΜΟΣ ΜΟΣΧΑΤΟΥ,13,51,"ΚΟΡΑΗ 36 & ΑΓ. ΓΕΡΑΣΙΜΟΥ, ΜΟΣΧΑΤΟ, 18345, ΑΘΗΝΑ"
130,,38.08991241,23.81919479,ΔΗΜΟΣ Ν. ΕΡΥΘΡΑΙΑΣ,13,51,"Ν. ΠΛΑΣΤΗΡΑ 14, 14671 Ν. ΕΡΥΘΡΑΙΑ"
131,,38.0402298,23.76179504,ΔΗΜΟΣ Ν. ΙΩΝΙΑΣ,13,51,ΑΓΙΟΥ ΓΕΩΡΓΙΟΥ 40 & ΑΝΤΛΙΟΣΤΑΣΙΟΥ 14234 ΝΕΑ ΙΩΝΙΑ
132,,38.08574677,23.95812416,ΔΗΜΟΣ Ν. ΜΑΚΡΗΣ,13,51,Λ. ΜΑΡΑΘΩΝΟΣ 104  19005 ΝΕΑ ΜΑΚΡΗ
133,,38.0173912,23.43891335,ΔΗΜΟΣ Ν. ΠΕΡΑΜΟΥ,13,51,"25η ΜΑΡΤΙΟΥ 11, 19006 ΝΕΑ ΠΕΡΑΜΟΣ"
134,,37.94800568,23.71622849,ΔΗΜΟΣ Ν. ΣΜΥΡΝΗΣ,13,51,"ΕΛ. ΒΕΝΙΖΕΛΟΥ 14, 17121"
135,,38.03519821,23.73834419,ΔΗΜΟΣ Ν. ΦΙΛΑΔΕΛΦΕΙΑΣ,13,51,ΔΕΚΕΛΕΙΑΣ 97 14341 ΝΕΑ ΦΙΛΑΔΕΛΦΕΙΑ
136,,38.02820969,23.73420715,ΔΗΜΟΣ Ν. ΧΑΛΚΗΔΟΝΑΣ,13,51,"ΡΑΙΔΕΣΤΟΥ 21, 14343 Ν. ΧΑΛΚΗΔΟΝΑ"
137,,38.00483704,23.78203773,ΔΗΜΟΣ Ν. ΨΥΧΙΚΟΥ,13,51,"Γ. ΤΕΡΤΣΕΤΗ 44, 15451, ΝΈΟ ΨΥΧΙΚΟ"
138,,37.96400452,23.64825058,ΔΗΜΟΣ ΝΙΚΑΙΑΣ,13,51,Π.ΤΣΑΛΔΑΡΗ 10
139,,37.92945862,23.68890381,ΔΗΜΟΣ Π. ΦΑΛΗΡΟΥ,13,51,"ΑΓ. ΑΛΕΞΑΝΔΡΟΥ 70, 17561 ΠΑΛΑΙΟ ΦΑΛΗΡΟ"
140,,37.94696045,23.87631989,ΔΗΜΟΣ ΠΑΙΑΝΙΑΣ,13,51,"Μ. ΠΑΠΑΚΩΝ/ΝΟΥ 1,  19002 ΠΑΙΑΝΙΑ"
141,,38.00439835,23.88821793,ΔΗΜΟΣ ΠΑΛΛΗΝΗΣ,13,51,"ΠΛ. ΕΛΕΥΘΕΡΙΑΣ 1, 15351 ΠΑΛΛΗΝΗ"
142,,37.99227905,23.79886246,ΔΗΜΟΣ ΠΑΠΑΓΟΥ,13,51,"ΑΝΑΣΤΑΣΕΩΣ 90, ΠΑΠΑΓΟΥ"
143,,37.95090103,23.64110374,ΔΗΜΟΣ ΠΕΙΡΑΙΑ,13,51,"ΠΛ. ΚΟΡΑΗ & ΔΡΑΓΑΤΣΗ 1, 18510 ΠΕΙΡΑΙΑΣ"
144,,37.96367264,23.56303024,ΔΗΜΟΣ ΠΕΡΑΜΑΤΟΣ,13,51,"ΛΕΩΦ.ΔΗΜΟΚΡΑΤΙΑΣ 28 , 18863"
145,,38.01194382,23.70285606,ΔΗΜΟΣ ΠΕΡΙΣΤΕΡΙΟΥ,13,51,"ΔΗΜΟΣΘΕΝΟΥΣ 11-13, 12132 ΠΕΡΙΣΤΕΡΙ"
146,,38.04076004,23.68794632,ΔΗΜΟΣ ΠΕΤΡΟΥΠΟΛΗΣ,13,51,ΚΩΣΤΑ ΒΑΡΝΑΛΗ 76-78 13231 ΠΕΤΡΟΥΠΟΛΗ
147,,38.05885315,23.79154396,ΔΗΜΟΣ ΠΕΥΚΗΣ,13,51,"Ρ. ΦΕΡΡΑΙΟΥ 9, 15121 ΠΕΥΚΗ"
148,,37.50087357,23.45445251,ΔΗΜΟΣ ΠΟΡΟΥ,13,51,18020 ΠΟΡΟΣ
149,,38.01993942,24.00926781,ΔΗΜΟΣ ΡΑΦΗΝΑΣ,13,51,"ΑΡΑΦΗΝΙΔΩΝ ΑΛΩΝ 12, 19009 ΡΑΦΗΝΑ"
150,,37.90401459,23.44189072,ΔΗΜΟΣ ΣΑΛΑΜΙΝΑΣ,13,51,ΚΑΡΑΜΑΝΛΗ & ΑΜΜΟΧΩΣΤΟΥ 18900 ΣΑΛΑΜΙΝΑ
151,,37.95983124,23.93287086,ΔΗΜΟΣ ΣΠΑΤΩΝ,13,51,"ΒΑΣ. ΠΑΥΛΟΥ ΚΑΙ ΦΛΕΜΙΝΓΚ, 19004 ΣΠΑΤΑ ΑΤΤΙΚΗΣ"
152,,37.2597084,23.16181183,ΔΗΜΟΣ ΣΠΕΤΣΩΝ,13,51,"ΔΗΜΑΡΧΕΙΟ ΣΠΕΤΣΩΝ, ΚΑΠΟΔΙΣΤΡΙΑΚΗ ΣΤΕΓΗ ΣΠΕΤΣΩΝ 18050 ΣΠΕΤΣΕΣ"
153,,37.96572495,23.69698906,ΔΗΜΟΣ ΤΑΥΡΟΥ,13,51,"ΠΕΙΡΑΙΩΣ & ΕΠΤΑΛΟΦΟΥ, 17778"
154,,37.49742126,23.44650078,ΔΗΜΟΣ ΤΡΟΙΖΗΝΑΣ,13,51,"ΓΑΛΑΤΑΣ ΤΡΟΙΖΗΝΑΣ, 18020"
155,,37.32614899,23.43593788,ΔΗΜΟΣ ΥΔΡΑΣ,13,51,18040 ΥΔΡΑ
156,,37.95201111,23.74634171,ΔΗΜΟΣ ΥΜΗΤΤΟΥ,13,51,"ΠΛΑΤΕΙΑ ΗΡΩΩΝ ΠΟΛΥΤΕΧΝΕΙΟΥ 1, 17237 ΥΜΗΤΤΟΣ"
157,,38.02232742,23.77648163,ΔΗΜΟΣ ΦΙΛΟΘΕΗΣ,13,51,"Π. ΚΑΛΛΙΓΑ 31 15237 ΦΙΛΟΘΕΗ, ΤΥ ΔΗΜΟΥ: ΒΕΚΙΑΡΕΛΛΗ 11"
158,,38.11434555,23.65889931,ΔΗΜΟΣ ΦΥΛΗΣ,13,51,"ΚΕΝΤΡΙΚΗ ΠΛΑΤΕΙΑ  ΦΥΛΗΣ , 13341"
159,,38.01249313,23.6597538,ΔΗΜΟΣ ΧΑΙΔΑΡΙΟΥ,13,51,"ΛΕΩΦΟΡΟΣ ΑΘΗΝΩΝ 181-183, ΧΑ'Ι'ΔΑΡΙ 12461"
160,,38.02278519,23.79746437,ΔΗΜΟΣ ΧΑΛΑΝΔΡΙΟΥ,13,51,ΖΑΛΟΚΩΣΤΑ 4 15233 ΧΑΛΑΝΔΡΙ
161,,38.01486969,23.79509926,ΔΗΜΟΣ ΧΟΛΑΡΓΟΥ,13,51,"ΠΕΡΙΚΛΕΟΥΣ 55, 15561"
162,,38.04498291,23.78078079,ΔΙΕΥΡΥΜΕΝΗ ΝΟΜΑΡΧΙΑΚΗ ΑΥΤΟΔΙΟΙΚΗΣΗ ΑΘΗΝΩΝ-ΠΕΙΡΑΙΩΣ,41,51,ΚΗΦΙΣΙΑΣ 125-127
163,,37.97917938,23.71664619,ΕΘΝΙΚΗ ΣΧΟΛΗ ΔΗΜΟΣΙΑΣ ΥΓΕΙΑΣ,18,51,"Λ. ΑΛΕΞΑΝΔΡΑΣ 196, 115 21 ΑΘΗΝΑ"
164,,38.03446198,23.71270561,ΕΘΝΙΚΟ ΙΔΡΥΜΑ ΑΠΟΚΑΤΑΣΤΑΣΗΣ ΑΝΑΠΗΡΩΝ ΑΓΙΩΝ ΑΝΑΡΓΥΡΩΝ (ΕΙΕΑ),18,51,"ΧΑΣΙΑΣ 9η ΣΤΑΣΗ, ΙΛΙΟΝ, 13122"
165,,37.97673798,23.74550819,ΕΘΝΙΚΟΣ ΟΡΓΑΝΙΣΜΟΣ ΜΕΤΑΜΟΣΧΕΥΣΕΩΝ,18,51,"ΠΛΟΥΤΑΡΧΟΥ 3 ΑΘΗΝΑ, 1ος ΟΡΟΦΟΣ"
166,,38.00759506,23.80260658,ΕΘΝΙΚΟΣ ΟΡΓΑΝΙΣΜΟΣ ΦΑΡΜΑΚΩΝ,18,51,"ΜΕΣΟΓΕΙΩΝ 284, 155 62 ΧΟΛΑΡΓΟΣ"
167,,37.96220016,23.72906876,ΕΙΔΙΚΗ ΥΠΗΡΕΣΙΑ ΔΙΑΧΕΙΡΙΣΗΣ ΕΠΙΧΕΙΡΗΣΙΑΚΟΥ ΠΡΟΓΡΑΜΜΑΤΟΣ ΔΙΟΙΚΗΤΙΚΗ ΜΕΤΑΡΡΥΘΜΙΣΗ,28,51,"ΘΕΦΙΛΟΠΟΥΛΟΥ 18 & ΜΕΝΑΙΧΜΟΥ, Ν.ΚΟΣΜΟΣ"
168,,37.98591614,23.72268867,ΕΚΚΑ ΕΞΑΡΧΕΙΑ,5,51,"ΚΑΡΟΛΟΥ 16 ΑΘΗΝΑ, 10437"
169,,37.94565582,23.65096474,ΕΚΚΑ ΚΑΡΑΟΛΗ ΔΗΜΗΤΡΙΟΥ,5,51,"ΚΑΡΑΟΛΗ ΔΗΜΗΤΡΙΟΥ &ΗΡΩΩΝ ΠΟΛΥΤΕΧΝΕΙΟΥ 19, ΠΕΙΡΑΙΑΣ 18532"
170,,37.98521423,23.7598114,ΕΚΚΑ ΚΕΝΤΡΟ ΥΠΟΔΟΧΗΣ,5,51,ΒΑΣ. ΣΟΦΙΑΣ 135 & ΖΑΧΑΡΩΦ 11521
171,,39.37828827,22.93601418,ΕΚΚΑ Ν. ΙΩΝΙΑΣ,5,51,ΓΑΛΗΝΟΥ & ΑΓ. ΟΛΓΑΣ 14223
172,,37.96534729,23.66431427,ΕΚΚΑ ΡΕΝΤΗ,5,51,"ΘΕΣ/ΝΙΚΗΣ 9, ΑΓ. ΙΩΑΝΝΗΣ ΡΕΝΤΗΣ 18233"
173,,37.90475082,23.79303169,ΕΚΕΒΥΛ,18,51,"ΕΚΕΒΥΛ, ΣΜΥΡΝΗΣ 13-15, 16562 ΓΛΥΦΑΔΑ"
174,,37.97673798,23.74550819,ΕΘΝΙΚΟ ΚΕΝΤΡΟ ΔΙΑΒΗΤΗ (ΕΚΕΔΙ),18,51,"ΠΛΟΥΤΑΡΧΟΥ 3, ΚΟΛΩΝΑΚΙ"
175,,37.99787521,23.59811592,ΘΕΡΑΠΕΥΤΗΡΙΟ ΧΡΟΝΙΩΝ ΠΑΘΗΣΕΩΝ ΠΑΙΔΩΝ ΑΘΗΝΩΝ ΣΚΑΡΑΜΑΓΚΑΣ,70,51,"ΛΕΩΦΟΡΟΣ ΣΧΙΣΤΟΥ 1, 12462"
176,,37.89693069,23.74700546,ΘΧΠ ΑΤΤΙΚΗΣ,70,51,"Λ. ΒΟΥΛΙΑΓΜΕΝΗΣ & ΕΛ. ΒΕΝΙΖΕΛΟΥ, ΕΛΛΗΝΙΚΟ"
177,,35.42716217,24.03613472,ΔΗΜΟΣ ΚΕΡΑΜΕΙΩΝ,13,48,ΓΕΡΟΛΑΚΚΟΣ 73100 ΧΑΝΙΑ
178,,37.98894882,23.72874069,ΙΝΣΤΙΤΟΥΤΟ ΕΡΕΥΝΗΣ ΘΩΡΑΚΑ & ΥΓΙΕΙΝΗΣ,18,51,"ΑΒΕΡΩΦ 12 Α,  10433"
179,,37.98955917,23.77667046,"ΙΝΣΤΙΤΟΥΤΟ ΥΓΕΙΑΣ ΚΑΙ ΠΑΙΔΙΟΥ ΝΟΣΟΚΟΜΕΙΟ ΠΑΙΔΩΝ ""ΑΓΙΑ ΣΟΦΙΑ''",70,51,"ΚΤΙΡΙΟ ΔΟΞΙΑΔΗ, 11527 ΑΘΗΝΑ"
180,,38.00439835,23.88821793,ΙΝΣΤΙΤΟΥΤΟ ΦΑΡΜΑΚΕΥΤΙΚΗΣ ΕΡΕΥΝΑΣ & ΤΕΧΝΟΛΟΓΙΑΣ (ΙΦΕΤ),18,51,18o ΧΛΜ ΛΕΩΦ. ΑΡΑΘΩΝΟΣ-ΠΑΛΛΗΝΗ ΑΤΤΙΚΗΣ 15351
181,,37.94698715,23.67310905,ΚΕΠ ΑΓΙΟΥ ΙΩΑΝΝΗ ΡΕΝΤΗ,24,51,ΦΛΕΜΙΝΓΚ 5 ΑΓ. Ι. ΡΕΝΤΗΣ
182,,38.01623154,23.76354027,ΚΕΠ ΑΙΓΙΝΑΣ,24,51,Αφαίας 29
183,,37.96415329,23.58950043,ΚΕΠ ΔΡΑΠΕΤΣΩΝΑΣ,24,51,"25ης ΜΑΡΤΙΟΥ 90, ΔΡΑΠΕΤΣΩΝΑ 18648"
184,,37.98769379,23.65893745,ΚΕΠ ΑΓΙΑΣ ΒΑΡΒΑΡΑΣ,24,51,ΕΛ.ΒΕΝΙΖΕΛΟΥ 75
185,,38.01288223,23.81764793,ΚΕΠ ΑΓ. ΠΑΡΑΣΚΕΥΗΣ,24,51,ΜΕΣΟΓΕΙΩΝ 419 ΑΓ . ΠΑΡΑΣΚΕΥΗ 15343
186,,37.97489929,23.73539925,ΚΕΠ ΑΘΗΝΑΙΩΝ,24,51,"ΑΜΑΛΙΑΣ & ΟΘΩΝΟΣ 10, 105 57"
187,,37.99186707,23.67868042,ΚΕΠ ΑΙΓΑΛΕΩ,24,51,"ΜΑΚΡΗΣ 4, ΑΙΓΑΛΕΩ 12241"
188,,37.91275024,23.71239471,ΚΕΠ ΑΛΙΜΟΥ,24,51,"ΘΟΥΚΥΔΙΔΟΥ 43, ΑΛΙΜΟΣ 17455"
189,,38.04881287,23.80344391,ΚΕΠ ΑΜΑΡΟΥΣΙΟΥ,24,51,"ΒΑΣ. ΣΟΦΙΑΣ 9 & ΔΗΜ.ΜΟΣΧΑ, 15124, ΜΑΡΟΥΣΙ"
191,,37.91106796,23.74913788,ΚΕΠ ΑΡΓΥΡΟΥΠΟΛΗΣ,24,51,"ΛΕΩΦ. ΚΥΠΡΟΥ 162, ΑΡΓΥΡΟΥΠΟΛΗ"
192,,38.08163071,23.5966568,ΚΕΠ ΑΣΠΡΟΠΥΡΓΟΥ,24,51,ΕΙΡΗΝΗΣ & ΘΕΜΙΣΤΟΚΛΕΟΥΣ 19300 ΑΣΠΡΟΠΥΡΓΟΣ
195,,37.94733429,23.78113174,ΚΕΠ ΒΥΡΩΝΑ,24,51,"ΚΟΛΟΚΟΤΡΩΝΗ & ΙΘΩΜΗΣ, 16233 ΒΥΡΩΝΑΣ"
196,,38.01183319,23.7545681,ΚΕΠ ΓΑΛΑΤΣΙΟΥ,24,51,ΕΛ. ΒΕΝΙΖΕΛΟΥ 20
197,,37.88539505,23.77815819,ΚΕΠ ΓΛΥΦΑΔΑΣ,24,51,"Γ. ΓΕΝΝΗΜΑΤΑ & ΠΛΑΠΟΥΤΑ, 16561 ΓΛΥΦΑΔΑ"
198,,37.95061493,23.7366066,ΚΕΠ ΔΑΦΝΗΣ,24,51,"ΕΛΛΗΣ 14, 172 35, ΔΑΦΝΗ"
199,,38.05797577,23.54308891,ΚΕΠ ΕΛΕΥΣΙΝΑΣ,24,51,"ΙΕΡΑ ΟΔΟΣ 22 ΚΑΙ ΚΟΥΤΑΛΙΕΡΗ, 19200 ΕΛΕΥΣΙΝΑ"
200,,37.89255524,23.75362968,ΚΕΠ ΕΛΛΗΝΙΚΟΥ,24,51,ΤΡΙΠΟΛΕΩΣ 36(ΠΕΡΙΟΧΗ ΣΟΥΡΜΕΝΩΝ)
201,,37.97167206,23.79600716,ΚΕΠ ΖΩΓΡΑΦΟΥ,24,51,"ΜΠΙΣΚΙΝΗ ΚΑΙ ΙΣΟΚΡΑΤΟΥΣ, 15772 ΖΩΓΡΑΦΟΥ"
202,,37.93190765,23.75725174,ΚΕΠ ΗΛΙΟΥΠΟΛΗΣ,24,51,"ΜΠΟΥΜΠΥΛΙΝΑΣ 35, ΗΛΙΟΥΠΟΛΗ"
203,,38.04613495,23.76515961,ΚΕΠ ΗΡΑΚΛΕΙΟΥ,24,51,"ΩΡΑΙΟΠΟΥΛΟΥ 5-7, ΗΡΑΚΛΕΙΟ ΑΤΤΙΚΗΣ 14122"
204,,38.02987289,23.70789909,ΚΕΠ ΙΛΙΟΥ (ΝΕΩΝ ΛΙΟΣΙΩΝ),24,51,"ΑΙΑΝΤΟΣ & ΧΡΥΣΗΙΔΟΣ, 13110 ΙΛΙΟΝ"
205,,37.96915436,23.75429916,ΚΕΠ ΚΑΙΣΑΡΙΑΝΗΣ,24,51,"ΕΘΝΙΚΗΣ ΑΝΤΙΣΤΑΣΕΩΣ 12, 16121"
206,,37.95088577,23.69113541,ΚΕΠ ΚΑΛΛΙΘΕΑΣ,24,51,"ΕΛ. ΒΕΝΙΖΕΛΟΥ 176, 17675 ΚΑΛΛΙΘΕΑ"
207,,38.05941772,23.71195602,ΚΕΠ ΚΑΜΑΤΕΡΟΥ,24,51,ΘΕΣΣΑΛΟΝΙΚΗΣ 17 & ΠΗΝΕΙΟΥ 1
208,,37.96245575,23.62195206,ΚΕΠ ΚΕΡΑΤΣΙΝΙΟΥ,24,51,"ΛΕΩΦ. ΣΑΛΑΜΙΝΟΣ 97, 18756 ΚΕΡΑΤΣΙΝΙ"
209,,38.07535553,23.80195618,ΚΕΠ ΚΗΦΙΣΙΑΣ,24,51,"Λ. ΚΗΦΙΣΙΑΣ 267, 14561 ΚΗΦΙΣΙΑ"
210,,37.98437119,23.64946365,ΚΕΠ ΚΟΡΥΔΑΛΛΟΥ,24,51,"ΓΡΗΓΟΡΙΟΥ ΛΑΜΠΡΑΚΗ 182 & ΥΔΡΑΣ, 18110 ΚΟΡΥΔΑΛΛΟΣ"
211,,37.90740585,23.87345123,ΚΕΠ ΚΡΩΠΙΑΣ,24,51,"ΚΑΡΑΙΣΚΑΚΗ 2, 19400 ΚΟΡΩΠΙ"
212,,38.07474136,23.49716949,ΚΕΠ ΜΑΝΔΡΑΣ,24,51,"ΒΑΣΙΛΕΙΟΥ ΛΑΣΚΟΥ 10, 19600 ΜΑΝΔΡΑ"
213,,38.08574677,23.95812416,ΚΕΠ ΜΑΡΑΘΩΝΟΣ,24,51,"Λ. ΜΑΡΑΘΩΝΟΣ 136, 19007"
214,,37.84264755,23.94013596,ΚΕΠ ΜΑΡΚΟΠΟΥΛΟΥ ΜΕΣΟΓΑΙΑΣ,24,51,ΣΟΥΝΙΟΥ 13 ΚΑΙ ΔΩΔΕΚΑΝΗΣΟΥ
215,,37.99484634,23.34459114,ΚΕΠ ΜΕΓΑΡΕΩΝ,24,51,"28ης ΟΚΤΩΒΡΙΟΥ 156, 19100 ΜΕΓΑΡΑ"
216,,38.05771637,23.83765221,ΚΕΠ ΜΕΛΙΣΣΙΩΝ,24,51,ΚΑΛΑΜΒΟΚΗ 2Α 15127 ΜΕΛΙΣΣΙΑ
217,,38.06800842,23.76625824,ΚΕΠ ΜΕΤΑΜΟΡΦΩΣΕΩΣ,24,51,"ΙΩ. ΡΑΛΛΗ 7, ΜΕΤΑΜΟΡΦΩΣΗ, 14452"
218,,37.94874191,23.67843628,ΚΕΠ ΜΟΣΧΑΤΟΥ,24,51,"ΛΑΜΠΡΟΥ ΚΑΤΣΩΝΗ 69, ΜΟΣΧΑΤΟ, 18344, ΑΘΗΝΑ"
219,,38.09209824,23.81371117,ΚΕΠ ΝΕΑΣ ΕΡΥΘΡΑΙΑΣ,24,51,"ΗΡΩΩΝ ΠΟΛΥΤΕΧΝΕΙΟΥ 26, 14671 Ν. ΕΡΥΘΡΑΙΑ"
220,,38.0402298,23.76179504,ΚΕΠ Ν. ΙΩΝΙΑΣ,24,51,"ΠΑΤΡΙΑΡΧΟΥ ΙΩΑΚΕΙΜ 4, 14234, ΝΕΑ ΙΩΝΙΑ"
221,,38.08574677,23.95812416,ΚΕΠ ΝΕΑΣ ΜΑΚΡΗΣ,24,51,Λ. ΜΑΡΑΘΩΝΟΣ 104  19005 ΝΕΑ ΜΑΚΡΗ
222,,37.945961,23.71098137,ΚΕΠ ΝΕΑΣ ΣΜΥΡΝΗΣ,24,51,"Κ. ΠΑΛΑΙΟΛΟΓΟΥ 22, 17121"
223,,38.04105759,23.73820877,ΚΕΠ ΝΕΑΣ ΦΙΛΑΔΕΛΦΕΙΑΣ,24,51,ΠΙΝΔΟΥ 22 14342 ΝΕΑ ΦΙΛΑΔΕΛΦΕΙΑ
224,,38.00524521,23.78233147,ΚΕΠ ΝΕΟΥ ΨΥΧΙΚΟΥ,24,51,"Γ. ΤΕΡΤΣΕΤΗ & Ν. ΠΑΡΙΤΣΗ 15451, ΝΈΟ ΨΥΧΙΚΟ"
225,,37.96993256,23.6435585,ΚΕΠ ΝΙΚΑΙΑΣ,24,51,ΜΕΝΕΜΕΝΗΣ 57
226,,37.92945862,23.68890381,ΚΕΠ ΠΑΛΑΙΟΥ ΦΑΛΗΡΟΥ,24,51,"ΑΓ. ΑΛΕΞΑΝΔΡΟΥ 75, 17561 ΠΑΛΑΙΟ ΦΑΛΗΡΟ"
227,,38.00917053,23.879776,ΚΕΠ ΠΑΛΛΗΝΗΣ,24,51,"ΠΕΝΤΕΛΗΣ 1 & ΒΥΖΑΝΤΙΟΥ, 15351"
228,,37.94639587,23.6423378,ΚΕΠ ΠΕΙΡΑΙΩΣ,24,51,ΑΚΤΗ ΠΟΣΕΙΔΩΝΟΣ
229,,38.00413132,23.70228577,ΚΕΠ ΠΕΡΙΣΤΕΡΙΟΥ,24,51,"ΕΘΝΑΡΧΟΥ ΜΑΚΑΡΙΟΥ 44, 12132 ΠΕΡΙΣΤΕΡΙ"
230,,38.03773499,23.69253922,ΚΕΠ ΠΕΤΡΟΥΠΟΛΕΩΣ,24,51,25ης ΜΑΡΤΙΟΥ 42 & ΚΑΝΑΡΗ
231,,38.05885315,23.79154396,ΚΕΠ ΠΕΥΚΗΣ,24,51,"ΔΗΜΟΚΡΑΤΙΑΣ 20(ΕΜΠΟΡΙΚΟ ΚΕΝΤΡΟ ΠΕΥΚΗΣ-ΑΛΚΟ), 15121 ΠΕΥΚΗ"
232,,37.90401459,23.44189072,ΚΕΠ ΣΑΛΑΜΙΝΑΣ,24,51,"ΛΕΩΦΟΡΟΣ ΙΠΠΟΚΡΑΤΟΥΣ 169, 18900 ΣΑΛΑΜΙΝΑ"
233,,37.96678543,23.69579506,ΚΕΠ ΤΑΥΡΟΥ,24,51,"ΠΕΙΡΑΙΩΣ 225, 17778"
234,,37.95201111,23.74634171,ΚΕΠ ΥΜΗΤΤΟΥ,24,51,"ΠΕΡΓΑΜΟΥ 1 & ΧΡΥΣΟΣΤΟΜΟΥ ΣΜΥΡΝΗΣ, 17237 ΥΜΗΤΤΟΣ"
235,,38.01251221,23.66036034,ΚΕΠ ΧΑΙΔΑΡΙΟΥ,24,51,ΛΕΩΦΟΡΟΣ ΑΘΗΝΩΝ 227 ΧΑ'Ι'ΔΑΡΙ 12461
357,,35.29606247,25.01595497,ΔΗΜΟΣ ΤΥΛΙΣΟΥ,13,43,71500 ΤΥΛΙΣΟΣ
236,,38.0221138,23.7982769,ΚΕΠ ΧΑΛΑΝΔΡΙΟΥ,24,51,"ΜΕΣΟΛΟΓΓΙΟΥ 2, 15233 ΧΑΛΑΝΔΡΙ"
237,,38.00517654,23.76615715,ΚΕΠ ΨΥΧΙΚΟΥ,24,51,"ΓΡΑΜΜΟΥ 2, 15452 ΨΥΧΙΚΟ"
238,,38.01818466,23.68214798,Κ.Ψ.Υ. ΠΕΡΙΣΤΕΡΙΟΥ,64,51,ΠΛΟΥΤΩΝΟΣ 19 & ΗΦΑΙΣΤΟΥ
239,,37.84658813,23.77220726,ΚΕΝΤΡΟ ΑΠΟΘΕΡΑΠΕΙΑΣ & ΑΠΟΚΑΤΑΣΤΑΣΗΣ ΠΑΙΔΙΩΝ ΒΟΥΛΑΣ (Κ.Α.Α.Π.Β.),18,51,"Λ. Κ. ΚΑΡΑΜΑΝΛΗ 2, 16673 ΒΟΥΛΑ"
240,,38.04536438,23.72845268,ΚΕΝΤΡΟ ΒΡΕΦΩΝ «ΜΗΤΕΡΑ» (ΕΟΚΦ) - ΦΥΛΗΣ,18,51,"ΔΗΜΟΚΡΑΤΙΑΣ 65, 13122, ΙΛΙΟΝ"
241,,37.98925018,23.72832489,ΚΕΝΤΡΟ ΕΛΕΓΧΟΥ & ΠΡΟΛΗΨΗΣ ΝΟΣΗΜΑΤΩΝ (ΚΕΕΛ),18,51,"3ης ΣΕΠΤΕΜΒΡΙΟΥ 42 ΚΑΙ ΠΟΛΥΤΕΧΝΕΙΟΥ 9, 10433 ΑΘΗΝΑ"
242,,37.95090103,23.64110374,ΚΕΝΤΡΟ ΠΡΟΣΤΑΣΙΑΣ ΠΑΙΔΩΝ ΜΙΧΑΛΗΝΕΙΟ,18,51,"ΑΚΤΗ ΚΟΥΝΤΟΥΡΙΩΤΗ 3, ΠΛ ΑΛΕΞΑΝΔΡΑΣ ΚΑΣΤΕΛΑ ΠΕΙΡΑΙΑ"
243,,37.74679947,23.42676735,ΚΕΝΤΡΟ ΥΓΕΙΑΣ ΑΙΓΙΝΑΣ,64,51,ΑΙΓΙΝΑ 18010
244,,37.82561111,23.8063221,ΚΕΝΤΡΟ ΥΓΕΙΑΣ ΒΑΡΗΣ,64,51,"ΟΑΣΕΩΣ ΚΑΙ ΤΡΙΠΤΟΠΟΛΕΜΟΥ 20, 16672 ΒΑΡΗ"
245,,37.49742126,23.44650078,ΚΕΝΤΡΟ ΥΓΕΙΑΣ ΓΑΛΑΤΑ,64,51,"ΓΑΛΑΤΑΣ ΤΡΙΖΗΝΙΑΣ, 18020"
246,,38.03922272,23.54096413,ΚΕΝΤΡΟ ΥΓΕΙΑΣ ΕΛΕΥΣΙΝΑΣ,64,51,"ΚΙΜΩΝΟΣ 12, ΕΛΕΥΣΙΝΑ"
247,,38.28447342,23.86406326,ΚΕΝΤΡΟ ΥΓΕΙΑΣ ΚΑΠΑΝΔΡΙΤΙΟΥ,64,51,ΚΑΠΑΝΔΡΙΤΙ ΑΤΤΙΚΗΣ
248,,37.90024567,23.87239265,ΚΕΝΤΡΟ ΥΓΕΙΑΣ ΚΟΡΩΠΙΟΥ,64,51,"ΒΑΣ. ΚΩΝ/ΝΟΥ 7, ΚΟΡΩΠΙ 19400"
249,,37.88018799,23.97743607,ΚΕΝΤΡΟ ΥΓΕΙΑΣ ΜΑΡΚΟΠΟΥΛΟΥ,64,51,ΤΕΡΜΑ ΕΥΑΓΓΕΛΙΣΤΡΙΑΣ 19003 ΜΑΡΚΟΠΟΥΛΟ
250,,37.99484634,23.34459114,ΚΕΝΤΡΟ ΥΓΕΙΑΣ ΜΕΓΑΡΩΝ,64,51,ΚΟΥΡΚΟΥΡΙ 19100 ΜΕΓΑΡΑ
251,,38.06892014,23.98222351,ΚΕΝΤΡΟ ΥΓΕΙΑΣ Ν. ΜΑΚΡΗΣ,64,51,"ΝΕΑ ΜΑΚΡΗ, ΛΕΩΦΟΡΟΣ ΜΑΡΑΘΩΝΟΣ"
252,,37.92907715,23.51332664,ΚΕΝΤΡΟ ΥΓΕΙΑΣ ΣΑΛΑΜΙΝΑΣ,64,51,"ΚΕΝΤΡΟ ΥΓΕΙΑΣ ΣΑΛΑΜΙΝΑΣ, ΛΕΩΦΟΡΟΣ ΦΑΝΕΡΩΜΕΝΗΣ"
253,,38.01288986,23.81547356,ΚΕΝΤΡΟ ΨΥΧΙΚΗΣ ΥΓΙΕΙΝΗΣ ΧΑΛΑΝΔΡΙΟΥ,64,51,"ΖΑΛΟΓΓΟΥ 6, ΑΓΙΑ ΠΑΡΑΣΚΕΥΗ, 15343"
254,,37.98553085,23.75470924,"ΜΑΙΕΥΤΙΚΟ-ΓΥΝ/ΚΟ ""ΕΛΕΝΑ ΒΕΝΙΖΕΛΟΥ""",70,51,ΠΛ. ΕΛ. ΒΕΝΙΖΕΛΟΥ 2 ΑΘΗΝΑ 115 21
255,,37.99415207,23.66411591,ΜΟΝΑΔΑ ΚΟΙΝΩΝΙΚΗΣ ΑΠΟΚΑΤΑΣΤΑΣΗΣ ΧΑΝΣΕΝΙΚΩΝ,18,51,"ΔΩΔΕΚΑΝΗΣΟΥ 1 ΑΓ. ΒΑΡΒΑΡΑ , 123 51"
256,,38.01042175,23.60939789,ΜΟΝΑΔΑ ΦΥΣΙΚΗΣ ΑΠΟΚΑΤΑΣΤΑΣΗΣ ΣΚΑΡΑΜΑΓΚΑ Γ,18,51,ΘΕΟΛΟΓΟΥ 11 ΣΚΑΡΑΜΑΓΚΑΣ
257,,37.98394012,23.75662994,"Ν ΠΑΘ/ΚΟ ΣΠΗΛΙΟΠΟΥΛΕΙΟ ""ΑΓ. ΕΛΕΝΗ""",70,51,ΔΗΜ. ΣΟΥΤΣΟΥ 21  ΑΘΗΝΑ 115 21
258,,37.98926163,23.75611496,"ΝΓΝ ""ΕΛΠΙΣ""",70,51,ΔΗΜΗΤΣΑΝΑΣ 7 ΑΘΗΝΑ 115 22
259,,38.01457214,23.73174095,"ΝΓΝ ""ΠΑΜΜΑΚΑΡΙΣΤΟΣ""",70,51,ΙΑΚΩΒΑΤΩΝ 43 ΑΘΗΝΑ 111 44
260,,37.97681046,23.7128315,"ΝΓΝ ""ΠΟΛΥΚΛΙΝΙΚΗ""",70,51,ΠΕΙΡΑΙΩΣ 3 ΑΘΗΝΑ 105 52
261,,37.99415207,23.66411591,ΝΓΝ ΔΥΤΙΚΗΣ ΑΤΤΙΚΗΣ 'ΑΓΙΑ ΒΑΡΒΑΡΑ',70,51,"ΔΩΔΕΚΑΝΗΣΟΥ 1, 112351, ΑΓΙΑ ΒΑΡΒΑΡΑ"
262,,38.05771637,23.83765221,"ΝΓΝ ΜΕΛΙΣΣΙΩΝ ""ΑΜΑΛΙΑ ΦΛΕΜΙΝΓΚ""",70,51,"Α) ΠΤΕΡΥΓΑ ""ΤΣΑΓΚΑΡΗ"", 25ης ΜΑΡΤΙΟΥ 14, 15127 ΜΕΛΙΣΣΙΑ ) ΠΤΕΡΥΓΑ ΜΠΟΜΠΟΛΑ, Λ. ΠΗΓΗΣ &ΖΑ'Ι'ΜΗ 15127 ΜΕΛΙΣΣΙΑ"
263,,38.09160995,23.79600716,"ΝΓΝ ΟΓΚ/ΚΟ ΝΟΣΟΚΟΜΕΙΟ ΚΗΦΙΣΙΑΣ ""ΟΙ ΑΓΙΟΙ ΑΝΑΡΓΥΡΟΙ """,70,51,"ΚΑΛΥΦΤΑΚΙ, Ν. ΚΗΦΙΣΙΑ, 14564"
264,,38.01972198,23.72906876,ΠΓΝ ΠΑΤΗΣΙΩΝ,70,51,ΧΑΛΚΙΔΑΣ 15-17 Α.ΠΑΤΗΣΙΑ ΑΘΗΝΑ 111 43
265,,36.28974533,22.96461868,"ΝΓΝ-ΚΕΝΤΡΟ ΥΓΕΙΑΣ ΚΕΝΤΡΟ ΥΓΕΙΑΣ ΚΥΘΗΡΩΝ ""ΤΡΙΦΥΛΛΕΙΟ""",70,51,"ΠΟΤΑΜΟΣ ΚΥΘΗΡΩΝ, 80200"
266,,37.9939537,23.7671814,ΝΟΜΑΡΧΙΑΚΗ ΑΥΤΟΔΙΟΙΚΗΣΗ ΑΘΗΝΩΝ,41,51,"ΚΗΦΙΣΙΑΣ 125-127, 115-24 ΑΘΗΝΑ"
267,,38.02763367,23.86144829,ΝΟΜΑΡΧΙΑΚΗ ΑΥΤΟΔΙΟΙΚΗΣΗ ΑΝΑΤΟΛΙΚΗΣ ΑΤΤΙΚΗΣ,41,51,"17ο ΧΛΜ. ΛΕΩΦ. ΜΑΡΑΘΩΝΟΣ, Τ.Κ 15344 ΠΑΛΛΗΝΗ"
268,,38.05797577,23.54308891,ΝΟΜΑΡΧΙΑΚΗ ΑΥΤΟΔΙΟΙΚΗΣΗ ΔΥΤΙΚΗΣ ΑΤΤΙΚΗΣ,41,51,"ΗΡΩΩΝ  ΠΟΛΥΤΕΧΝΕΙΟΥ 78, Τ.Κ 19200, ΕΛΕΥΣΙΝΑ"
269,,37.94527435,23.64274216,ΝΟΜΑΡΧΙΑΚΗ ΑΥΤΟΔΙΟΙΚΗΣΗ ΠΕΙΡΑΙΩΣ,41,51,"ΑΚΤΗ ΠΟΣΕΙΔΩΝΟΣ 14 ? 16 , Τ.Κ. 18531"
270,,37.96229553,23.65675354,"ΝΟΣ. ΑΦΡΟΔ. & ΔΕΡΜ. ΝΟΣΩΝ ΑΘΗΝΩΝ ""ΑΝΔΡΕΑΣ ΣΥΓΓΡΟΣ""",70,51,ΔΡΑΓΟΥΜΗ 5 ΑΘΗΝΑ 161 21
271,,37.9890213,23.72808647,ΟΚΑΝΑ,18,51,"ΑΒΕΡΩΦ 21, 10433 ΑΘΗΝΑ"
272,,37.9896431,23.72865677,ΟΠΑΔ,18,51,"ΜΑΚΕΔΟΝΙΑΣ 8, 10433 ΑΘΗΝΑ"
273,,37.97685623,23.73695374,ΟΦΘΑΛΜΙΑΤΡΕΙΟ ΑΘΗΝΩΝ,70,51,ΖΑΛΟΚΩΣΤΑ 8 ΑΘΗΝΑ 106 72
274,,37.94066238,23.64501381,ΠΑΙΔΙΚΟ ΑΝΑΠΤΥΞΙΑΚΟ ΚΕΝΤΡΟ ΠΕΙΡΑΙΑ,18,51,"ΚΑΡΑΟΛΗ ΚΑΙ ΔΗΜΗΤΡΙΟΥ 39 ΚΑΙ ΗΡΩΩΝ ΠΟΛΥΤΕΧΝΕΙΟΥ, ΠΕΙΡΑΙΑΣ 18535"
275,,37.9141655,23.71022415,"ΠΑΙΔΟΠΟΛΗ ""ΑΓΙΟΣ ΑΝΔΡΕΑΣ"" ΚΑΛΑΜΑΚΙΟΥ ΑΤΤΙΚΗΣ",18,51,"ΘΟΥΚΥΔΙΔΟΥ 22, ΑΛΙΜΟΣ 17455"
276,,38.0068512,23.98974419,ΠΑΙΔΟΨΥΧΙΑΤΡΙΚΟ ΝΟΣΟΚΟΜΕΙΟ ΑΤΤΙΚΗΣ,70,51,ΔΙΑΣΤΑΥΡΩΣΗ ΡΑΦΗΝΑΣ 19009
277,,37.93044662,23.64395714,ΠΓ ΑΝΤΙΚΑΡ/ΚΟ ΠΕΙΡΑΙΑ 'ΜΕΤΑΞΑ',70,51,ΜΠΟΤΑΣΗ 51 - ΠΕΙΡΑΙΑΣ - 185 37
278,,37.99829483,23.78359032,"ΠΓΝ ""Γ. ΓΕΝΝΗΜΑΤΑΣ""",70,51,ΜΕΣΟΓΕΙΩΝ 154 ΑΘΗΝΑ 11527
279,,37.97709274,23.74739265,"ΠΓΝ ""ΕΥΑΓΓΕΛΙΣΜΟΣ""",70,51,ΥΨΗΛΑΝΤΟΥ 45-47 - ΑΘΗΝΑ - 106 75
280,,37.98403168,23.75920486,"ΠΓΝ ""ΙΠΠΟΚΡΑΤΕΙΟ""",70,51,ΒΑΣ. ΣΟΦΙΑΣ 114 ΑΘΗΝΑ  115 27
281,,38.06601715,23.80926704,ΠΓΝ 'ΚΑΤ',70,51,"ΝΙΚΗΣ 2, 14561 ΚΗΦΙΣΙΑ"
282,,37.98397446,23.76428413,"ΠΓΝ ""ΛΑΪΚΟ""",70,51,ΑΓΙΟΥ ΘΩΜΑ 17 ΑΘΗΝΑ 115 27
283,,38.05155182,23.81980515,"ΠΓΝ ""ΣΙΣΜΑΝΟΓΛΕΙΟ""",70,51,"Γ.Ν.Α. ΣΙΣΜΑΝΟΓΛΕΙΟ, 15126 ΜΑΡΟΥΣΙ"
284,,37.98058701,23.75476456,"ΠΓΝ ΑΘΗΝΩΝ ""ΑΛΕΞΑΝΔΡΑ""",70,51,ΒΑΣ. ΣΟΦΙΑΣ 80 - ΑΘΗΝΑ - 115 28
285,,37.99181747,23.76801491,"ΠΓΝ ΑΘΗΝΩΝ ""ΚΟΡΓΙΑΛΕΝΕΙΟ - ΜΠΕΝΑΚΕΙΟ ΕΕΣ""",70,51,ΕΡΥΘΡΟΥ ΣΤΑΥΡΟΥ ΚΑΙ ΑΘΑΝΑΣΑΚΗ 1 ΑΘΗΝΑ 155 26
286,,37.84658813,23.77220726,"ΠΓΝ ΒΟΥΛΑΣ ""ΑΣΚΛΗΠΙΕΙΟ""",70,51,"ΒΑΣ. ΠΑΥΛΟΥ 1, ΒΟΥΛΑ 16673"
287,,38.07058334,23.53155708,"ΠΓΝ ΕΛΕΥΣΙΝΑΣ ""ΘΡΙΑΣΕΙΟ""",70,51,ΛΕΩΦ. Γ. ΓΕΝΝΗΜΑΤΑ ΜΑΓΟΥΛΑ 19018
288,,38.0358696,23.75881958,ΚΩΝΣΤΑΝΤΟΠΟΥΛΕΙΟ ΓΕΝΙΚΟ ΝΟΣΟΚΟΜΕΙΟ ΝΕΑΣ ΙΩΝΙΑΣ,70,51,"ΑΓ. ΟΛΓΑΣ 3-5, 14233, Ν.ΙΩΝΙΑ"
289,,37.97319412,23.66246033,"ΠΓΝ ΝΙΚΑΙΑΣ ""ΑΓ. ΠΑΝΤΕΛΕΗΜΩΝ""",70,51,"Δ. ΜΑΝΤΟΥΒΑΛΟΥ 3, 18454 ΝΙΚΑΙΑ"
291,,37.99779892,23.78298569,"ΠΓΝ ΝΟΣΗΜΑΤΩΝ ΘΩΡΑΚΟΣ ""ΣΩΤΗΡΙΑ""",70,51,"Γ.Ν.Ν.Θ.Α. ""Η ΣΩΤΗΡΙΑ"" ΜΕΣΟΓΕΙΩΝ 152, ΑΘΗΝΑ, 1157, ΚΤΙΡΙΟ ΔΙΟΙΚΗΣΗΣ"
292,,37.98439026,23.76784706,"ΠΓΝ ΠΑΙΔΩΝ ""ΑΓ. ΣΟΦΙΑ""",70,51,ΘΗΒΩΝ & ΠΑΠΑΔΙΑΜΑΝΤΟΠΟΥΛΟΥ ΑΘΗΝΑ 115 27
293,,37.98439026,23.76784706,"ΠΓΝ ΠΑΙΔΩΝ ""ΑΓΛΑΪΑ ΚΥΡΙΑΚΟΥ""",70,51,ΘΗΒΩΝ & ΛΕΙΒΑΔΕΙΑΣ - ΑΘΗΝΑ - 115 27
294,,37.93487167,23.64575768,ΠΓΝ ΠΕΙΡΑΙΑ 'ΤΖΑΝΕΙΟ',70,51,ΑΦΕΝΤΟΥΛΗ & ΖΑΝΝΗ -  18536 ΠΕΙΡΑΙΑΣ
295,,37.99421692,23.77435493,ΠΕΡΙΦΕΡΕΙΑ ΑΤΤΙΚΗΣ,17,51,ΚΑΤΕΧΑΚΗ 56 115 25 ΑΘΗΝΑ
296,,38.01559067,23.66548538,ΠΑΝΕΠΙΣΤΗΜΙΑΚΟ ΓΕΝΙΚΟ ΝΟΣΟΚΟΜΕΙΟ ΑΤΤΙΚΟΝ (ΠΠΓΝ ΔΥΤΙΚΗΣ ΑΤΤΙΚΗΣ),70,51,"ΡΙΜΙΝΙ 1, 12462 ΧΑΙΔΑΡΙ"
297,,37.98521423,23.7598114,ΣΕΚΚΑ,5,51,ΒΑΣ. ΣΟΦΙΑΣ 135 & ΖΑΧΑΡΩΦ 11521
298,,37.94759369,23.665308,"ΨΥΧΙΑΤΡΙΚΟ ΑΤΤΙΚΗΣ ""ΔΑΦΝΙ""",70,51,Λ. ΑΘΗΝΩΝ 374 12462 ΧΑΙΔΑΡΙ
299,,37.99900055,23.66517639,"ΨΥΧΙΑΤΡΙΚΟ ΑΤΤΙΚΗΣ ""ΔΡΟΜΟΚΑΪΤΕΙΟ""",70,51,ΙΕΡΑ ΟΔΟΣ 343 ΧΑΪΔΑΡΙ 124 61
300,,37.94234085,23.69775772,ΩΝΑΣΕΙΟ ΚΑΡΔΙΟΧΕΙΡΟΥΡΓΙΚΟ ΚΕΝΤΡΟ,70,51,ΛΕΩΦ. ΣΥΓΓΡΟΥ 356 ΚΑΛΛΙΘΕΑ 176 74
301,,35.3291626,25.13852692,Δ.Α. ΚΡΗΤΗΣ,28,43,"ΔΟΥΚΟΣ  ΜΠΟΦΩΡ 7, ΗΡΑΚΛΕΙΟ"
302,,35.13345718,24.99913406,ΔΗΜΟΣ ΑΓ. ΒΑΡΒΑΡΑΣ,13,43,"70003,  ΑΓΙΑ ΒΑΡΒΑΡΑ ΗΡΑΚΛΕΙΟΥ"
303,,35.18763351,25.71596527,ΔΗΜΟΣ ΑΓ. ΝΙΚΟΛΑΟΥ,13,24,"Ρ. ΚΑΠΕΤΑΝΑΚΗ 2, ΛΑΣΗΘΙ, 72100"
304,,35.51623535,24.01880646,ΔΗΜΟΣ ΑΚΡΩΤΗΡΙΟΥ,13,48,ΠΙΘΑΡΙ ΑΚΡΩΤΗΡΙΟΥ 73100 ΧΑΝΙΑ
306,,35.29105377,24.88092995,ΔΗΜΟΣ ΑΝΩΓΕΙΩΝ,13,3,74051 ΑΝΩΓΕΙΑ
307,,35.35747147,24.56026459,ΔΗΜΟΣ ΑΡΚΑΔΙΟΥ,13,3,ΑΔΕΛΕ 74100 ΡΕΘΥΜΝΟ
308,,35.45175934,24.1743679,ΔΗΜΟΣ ΑΡΜΕΝΩΝ,13,48,ΔΗΜΟΣ ΑΡΜΕΝΩΝ 73003 ΚΑΛΥΒΕΣ
309,,35.25027847,25.1697216,ΔΗΜΟΣ ΑΡΧΑΝΩΝ,13,43,"ΑΡΧΑΝΕΣ ΗΡΑΚΛΕΙΟΥ, 70100"
310,,35,25.20000076,ΔΗΜΟΣ ΑΣΤΕΡΟΥΣΙΩΝ,13,43,"ΔΗΜΟΣ ΑΣΤΕΡΟΥΣΙΩΝ, ΗΡΑΚΛΕΙΟ"
311,,35.39348602,24.17492485,ΔΗΜΟΣ ΒΑΜΟΥ,13,48,"ΒΑΜΟΣ ΧΑΝΙΩΝ, 73008"
313,,35.46707535,23.8005619,ΔΗΜΟΣ ΒΟΥΚΟΛΙΩΝ,13,48,ΒΟΥΚΟΛΙΕΣ ΚΙΣΑΜΟΥ 73002
314,,35.3702774,24.69944382,ΔΗΜΟΣ ΓΕΡΟΠΟΤΑΜΟΥ,13,3,"ΠΕΡΑΜΑ, 74052"
315,,35.34676361,24.28845406,ΔΗΜΟΣ ΓΕΩΡΓΙΟΥΠΟΛΕΩΣ,13,48,44ΧΛΜ. Π.Ε.Ο ΧΑΝΙΩΝ-ΡΕΘΥΜΝΟΥ 73007 ΚΑΒΡΟΣ ΧΑΝΙΩΝ
316,,35.19087982,24.9872818,ΔΗΜΟΣ ΓΟΡΓΟΛΑΙΝΗΣ,13,43,ΑΓ. ΜΥΡΩΝΑΣ 70013
317,,35.24011612,24.80926895,ΔΗΜΟΣ ΓΟΡΤΥΝΟΣ,13,43,"ΑΓ. ΔΕΚΑ, ΗΡΑΚΛΕΙΟ ΚΡΗΤΗΣ, 70012"
318,,35.34135437,25.17627335,ΔΗΜΟΣ ΓΟΥΒΩΝ,13,43,1. ΠΡΩΗΝ ΑΜΕΡΙΚΑΝΙΚΗ ΒΑΣΗ ΓΟΥΡΝΩΝ 71500 ΓΟΥΡΝΕΣ ΗΡΑΚΛΕΙΟΥ2.ΓΟΥΒΕΣ ΗΡΑΚΛΕΙΟΥ70014 Λ. ΧΕΡΣΟΝΗΣΟΥ
319,,35.48276901,24.01253319,ΔΗΜΟΣ ΕΛ. ΒΕΝΙΖΕΛΟΥ,13,48,ΕΛ. ΒΕΝΙΖΕΛΟΥ 73300 ΜΟΥΡΝΙΕΣ ΧΑΝΙΩΝ
320,,35.3291626,25.13852692,ΔΗΜΟΣ ΕΠΙΣΚΟΠΗΣ,13,43,"ΔΗΜΟΣ ΕΠΙΣΚΟΠΗΣ, ΗΡΑΚΛΕΙΟ ΚΡΗΤΗΣ"
321,,35.13056564,24.90466881,ΔΗΜΟΣ ΖΑΡΟΥ,13,43,"ΔΗΜΑΡΧΕΙΟ 70002, ΖΑΡΟΣ"
322,,35.33659363,25.13184738,ΔΗΜΟΣ ΗΡΑΚΛΕΙΟΥ,13,43,"ΑΝΔΡΟΓΕΩ 2 ΗΡΑΚΛΕΙΟ ΚΡΗΤΗΣ , 71202"
323,,35.40531921,23.98445892,ΔΗΜΟΣ ΘΕΡΙΣΟΥ,13,48,"ΔΗΜΟΣ ΘΕΡΙΣΟΥ, ΒΑΜΒΑΚΟΠΟΥΛΟ 73131"
324,,35.18333435,25.28333282,ΔΗΜΟΣ ΘΡΑΨΑΝΟΥ,13,43,"ΘΡΑΨΑΝΟ, 70006"
325,,35.01026154,25.74048042,ΔΗΜΟΣ ΙΕΡΑΠΕΤΡΑΣ,13,24,"ΚΑΝΟΥΠΑΚΗ1, ΙΕΡΑΠΕΤΡΑ"
326,,35.36526489,23.58475494,ΔΗΜΟΣ ΙΝΝΑΧΩΡΙΟΥ,13,48,"ΕΛΟΣ ΚΙΣΑΜΟΥ, 73012 ΧΑΝΙΑ"
327,,35.20000076,26.25,ΔΗΜΟΣ ΙΤΑΝΟΥ,13,24,ΠΑΛΑΙΚΑΣΤΡΟ 72300  ΝΟΜΟΣ ΛΑΣΙΘΙΟΥ
328,,35.33573914,23.72758102,ΔΗΜΟΣ ΚΑΝΤΑΝΟΥ,13,48,ΚΑΝΤΑΝΟΣ 73004 ΧΑΝΙΑ
329,,35.20000076,25.35000038,ΔΗΜΟΣ ΚΑΣΤΕΛΛΙΟΥ ΗΡΑΚΛΕΙΟΥ,13,43,"ΔΗΜΟΣ ΚΑΣΤΕΛΛΙΟΥ, ΚΑΣΤΕΛΛΙ, 70006, ΗΡΑΚΛΕΙΟ ΚΡΗΤΗΣ"
330,,35.4928894,23.66099739,ΔΗΜΟΣ ΚΙΣΣΑΜΟΥ,13,48,ΠΟΛΕΜΙΣΤΩΝ 1941 73400 ΚΙΣΑΜΟΣ
331,,35.52837372,23.76072693,ΔΗΜΟΣ ΚΟΛΥΜΒΑΡΙΟΥ,13,48,"ΚΟΛΥΜΒΑΡΙ ΧΑΝΙΩΝ, 73006"
332,,35.34434128,24.78879356,ΔΗΜΟΣ ΚΟΥΛΟΥΚΩΝΑ,13,3,"ΓΑΡΑΖΟ ΡΕΘΥΜΝΟΥ, 74054"
333,,35.21666718,24.71666718,ΔΗΜΟΣ ΚΟΥΡΗΤΩΝ,13,3,"ΦΟΥΡΦΟΥΡΑΣ ΡΕΘΥΜΝΟΥ, 74061"
334,,34.9972496,25.07032204,ΔΗΜΟΣ ΚΟΦΙΝΑ,13,43,"ΑΣΗΜΙ ΜΟΝΟΦΑΤΣΙΟΥ, 70016 ΗΡΑΚΛΕΙΟ ΚΡΗΤΗΣ"
335,,35.23055649,24.98277855,ΔΗΜΟΣ ΚΡΟΥΣΩΝΑ,13,43,70001 ΚΡΟΥΣΩΝΑΣ ΗΡΑΚΛΕΙΟΥ
336,,35.37758636,24.20053291,ΔΗΜΟΣ ΚΡΥΟΝΕΡΙΔΑΣ,13,48,73007 ΒΡΥΣΕΣ ΧΑΝΙΑ
337,,35.3428421,24.76812553,ΔΗΜΟΣ ΛΑΠΠΑΙΩΝ,13,3,"ΕΠΙΣΚΟΠΗ ΡΕΘΥΜΝΗΣ, 74055"
338,,35.08143234,26.09848785,ΔΗΜΟΣ ΛΕΥΚΗΣ,13,24,"ΖΗΡΟΣ ΧΑΝΔΡΑΣ, 72059"
339,,35.02154922,26.01509666,ΔΗΜΟΣ ΜΑΚΡΥ ΓΙΑΛΟΥ,13,24,ΔΗΜΑΡΧΕΙΟ ΜΑΚΡΥ ΓΙΑΛΟΥ
340,,35.27083206,25.4615097,ΔΗΜΟΣ ΜΑΛΙΩΝ,13,43,"25 ΜΑΡΤΙΟΥ, ΜΑΛΙΑ 70007"
341,,35.45420837,23.91210556,ΔΗΜΟΣ ΜΟΥΣΟΥΡΩΝ,13,48,ΑΛΙΚΙΑΝΟΣ 73005 ΔΗΜΟΣ ΜΟΥΣΟΥΡΩΝ
342,,35.49670792,23.69128799,ΔΗΜΟΣ ΜΥΘΗΜΝΗΣ,13,48,ΔΡΑΠΑΝΙΑΣ 73400 ΚΙΣΣΑΜΟΣ ΧΑΝΙΩΝ
343,,35.34244537,25.15741348,ΔΗΜΟΣ Ν. ΑΛΙΚΑΡΝΑΣΣΟΥ,13,43,"ΔΙΟΝΥΣΙΟΥ 13Α, 71601 ΑΛΙΚΑΡΝΑΣΣΟΣ"
344,,35.21777725,25.19277763,ΔΗΜΟΣ Ν. ΚΑΖΑΝΤΖΑΚΗ,13,43,ΠΕΖΑ ΗΡΑΚΛΕΙΟΥ70100
345,,35.50249481,23.97372055,ΔΗΜΟΣ Ν. ΚΥΔΩΝΙΑΣ,13,48,"ΕΛ. ΒΕΝΙΖΕΛΟΥ,  73100 ΓΑΛΑΤΑΣ"
346,,35.25539398,25.60737991,ΔΗΜΟΣ ΝΕΑΠΟΛΕΩΣ,13,24,"ΑΝΑΠΗΡΩΝ 1, 72400 ΝΕΑΠΟΛΗ ΚΡΗΤΗΣ"
347,,35.31829834,24.41463089,ΔΗΜΟΣ ΝΙΚ. ΦΩΚΑ,13,3,ΑΘΑΝΑΤΟΣ ΓΩΝΙΑ 74100
348,,35.23057556,23.68224907,ΔΗΜΟΣ ΠΕΛΕΚΑΝΟΥ,13,48,"ΕΛΕ. ΒΕΝΙΖΕΛΟΥ 73001, ΠΑΛΑΙΟΧΩΡΑ"
349,,35.52116776,23.88515472,ΔΗΜΟΣ ΠΛΑΤΑΝΙΑ,13,48,ΓΕΡΑΝΙ 73014 ΠΛΑΤΑΝΙΑΣ ΧΑΝΙΩΝ
350,,35.36686707,24.47472763,ΔΗΜΟΣ ΡΕΘΥΜΝΟΥ,13,3,"ΛΕΩΦΟΡΟΣ ΚΟΥΝΤΟΥΡΙΩΤΟΥ 80, 74100 ΡΕΘΥΜΝΟ"
351,,35.13278961,24.94984818,ΔΗΜΟΣ ΡΟΥΒΑ,13,43,ΓΕΡΓΕΡΗ 70003
352,,35.20468521,26.10808754,ΔΗΜΟΣ ΣΗΤΕΙΑΣ,13,24,"ΒΑΡΘΟΛΟΜΑΙΟΥ 9, 72300"
353,,35.23333359,24.63333321,ΔΗΜΟΣ ΣΙΒΡΙΤΟΥ,13,3,ΑΓΙΑ ΦΩΤΕΙΝΗ ΔΗΜΟΤΙΚΟΥ ΔΙΑΜΕΡΙΣΜΑΤΟΣ ΑΠΟΣΤΟΛΩΝ 74061
354,,35.47676468,24.06664085,ΔΗΜΟΣ ΣΟΥΔΑΣ,13,48,"ΕΘΝΑΡΧΟΥ ΒΕΝΙΕΛΟΥ 6, ΣΟΥΔΑ 73200"
355,,35.20119476,24.13656616,ΔΗΜΟΣ ΣΦΑΚΙΩΝ,13,48,"ΧΩΡΑ 73011, ΧΑΝΙΑ"
356,,35.3291626,25.13852692,ΔΗΜΟΣ ΤΕΜΕΝΟΥΣ,13,43,"ΠΡΟΦΗΤΗ ΗΛΙΑ, 71500 ΗΡΑΚΛΕΙΟ"
358,,35.2009201,24.3918705,ΔΗΜΟΣ ΦΟΙΝΙΚΑ,13,3,"ΔΗΜΟΣ ΦΟΙΝΑΚΑ, ΠΛΑΚΙΑΣ ΡΕΘΥΜΝΟ, 74060"
359,,35.40868378,24.19771385,ΔΗΜΟΣ ΦΡΕ,13,48,"ΑΠΟΚΟΡΩΝΟΥ ΒΑΜΟΣ ΧΑΝΙΩΝ, 73008"
360,,35.51248932,24.01918221,ΔΗΜΟΣ ΧΑΝΙΩΝ,13,48,"ΚΥΔΩΝΙΑΣ 29, 73135"
361,,35.30794907,25.37179565,ΔΗΜΟΣ ΧΕΡΣΟΝΗΣΟΥ,13,43,"ΕΛΕΥΘΕΡΙΑΣ 50, ΛΙΜΑΝΙ ΧΕΡΣΟΝΗΣΟΥ 70014"
362,,35.3348999,25.12963867,7η ΥΠΕ ΚΡΗΤΗΣ,66,43,"ΣΠΙΝΑΛΟΓΚΑΙΣ  1, 71201"
363,,35.49537277,24.04883957,ΘΕΡΑΠΕΥΤΗΡΙΟ ΨΥΧΙΚΩΝ ΠΑΘΗΣΕΩΝ ΧΑΝΙΩΝ,70,48,"ΘΕΡΑΠΕΥΤΗΡΙΟΥ 27, ΣΟΥΔΑ ΧΑΝΙΩΝ 73100 Τ.Θ. 12"
364,,35.18917847,25.71725464,ΘΧΠ ΛΑΣΙΘΙΟΥ,70,24,"ΠΑΡΟΔΟΣ ΕΠΙΜΕΝΙΔΟΥ 72100, ΑΓΙΟΣ ΝΙΚΟΛΑΟΣ ΛΑΣΙΘΙΟΥ"
365,,35.51623535,24.01880646,ΘΧΠ ΧΑΝΙΩΝ,70,48,"ΤΕΡΜΑ ΕΜΜ. ΠΙΜΠΛΗ ΑΓΙΟΣ ΙΩΑΝΝΗΣ 73100, ΧΑΝΙΑ"
366,,35.36686707,24.47472763,ΙΔΡΥΜΑ ΚΟΙΝΩΝΙΚΗΣ ΠΡΟΝΟΙΑΣ ΜΥΣΣΙΡΙ ΡΕΘΥΜΝΟΥ,18,3,"ΠΑΤΡ. ΑΘΗΝΑΓΟΡΑ 6, 74100  ΜΥΣΣΙΡΙΑ ΡΕΘΥΜΝΟ"
367,,35.18918991,25.71479607,ΚΕΠ ΔΗΜΟΥ ΑΓ. ΝΙΚΟΛΑΟΥ,24,24,"ΓΟΥΡΝΙΩΝ 13 & ΓΙΑΜΠΟΥΔΑΚΗ, 72100"
368,,35.33659363,25.13184738,ΚΕΠ ΔΗΜΟΥ ΗΡΑΚΛΕΙΟΥ,24,43,"ΑΝΔΡΟΓΕΩ 2 ΗΡΑΚΛΕΙΟ ΚΡΗΤΗΣ , 71202"
369,,35.01039505,25.7401104,ΚΕΠ ΔΗΜΟΥ ΙΕΡΑΠΕΤΡΑΣ,24,24,"ΓΙΑΝΝΑΚΟΥ 20, ΙΕΡΑΠΕΤΡΑ"
370,,34.94010544,24.83385277,ΚΕΠ ΔΗΜΟΥ ΜΟΙΡΩΝ,24,43,ΔΗΜΑΡΧΕΙΟ ΜΟΙΡΩΝ
371,,35.34244537,25.15741348,ΚΕΠ ΔΗΜΟΥ ΝΕΑΣ ΑΛΙΚΑΡΝΑΣΣΟΥ,24,43,"ΔΙΟΝΥΣΙΟΥ 13Α, 71601 ΑΛΙΚΑΡΝΑΣΣΟΣ"
372,,35.36686707,24.47472763,ΚΕΠ ΡΕΘΥΜΝΟΥ,24,3,"ΛΕΩΦΟΡΟΣ ΚΟΥΝΤΟΥΡΙΩΤΟΥ 98, 74100  ΡΕΘΥΜΝΟ"
373,,35.20780182,26.10635948,ΚΕΠ ΔΗΜΟΥ ΣΗΤΕΙΑΣ,24,24,"ΜΕΓ. ΑΛΕΞΑΝΔΡΟΥ ΚΑΙ ΚΑΠΟΔΙΣΤΡΙΟΥ, 72300"
374,,35.51248932,24.01918221,ΚΕΠ ΧΑΝΙΩΝ,24,48,"ΚΥΔΩΝΙΑΣ 29, 73135"
375,,35.36686707,24.47472763,ΚΕΚΥΚΑΜΕΑ ΡΕΘΥΜΝΟΥ,18,3,"ΠΑΠΑΝΙΚΟΛΑΟΥ 23, ΚΑΛΛΙΘΕΑ   74100, ΡΕΘΥΜΝΟ"
376,,35.50696945,24.02474022,ΚΕΝΤΡΟ ΑΠΟΚΑΤΑΣΤΑΣΗΣ ΠΑΙΔΙΩΝ ΚΑΙ ΝΕΩΝ ΚΡΗΤΗΣ & ΚΕΝΤΡΟ ΠΑΙΔΙΚΗΣ ΜΕΡΙΜΝΑΣ ΧΑΝΙΩΝ (ΣΥΣΤΕΓΑΖΟΝΤΑΙ),18,48,"ΑΠΟΚΟΡΩΝΟΥ  166, 73100, ΧΑΝΙΑ"
377,,35.01667023,24.86667061,ΚΕΝΤΡΟ ΠΕΡΙΘΑΛΨΗΣ ΠΑΙΔΩΝ ? ΠΟΜΠΙΑ ΗΡΑΚΛΕΙΟΥ,18,43,ΠΟΜΠΙΑ ΗΡΑΚΛΕΙΟΥ 70400
378,,35.25444412,24.63432693,ΚΕΝΤΡΟ ΥΓΕΙΑΣ ΑΓΙΑΣ ΦΩΤΕΙΝΗΣ,64,3,ΑΓΙΑ ΦΩΤΕΙΝΗ ΑΜΑΡΙΟΥ 74061
379,,35.33573914,23.72758102,ΚΕΝΤΡΟ ΥΓΕΙΑΣ ΚΑΝΔΑΝΟΥ,64,48,ΚΑΝΔΑΝΟΣ ΣΕΛΙΝΟΥ  73004
380,,35.21947098,24.53424644,ΚΕΝΤΡΟ ΥΓΕΙΑΣ ΣΠΗΛΙΟΥ,64,3,ΣΠΗΛΙ ΡΕΘΜΝΟΥ 74053
381,,35.13151169,25.02287292,ΚΕΝΤΡΟ ΥΓΕΙΑΣ ΑΓΙΑΣ ΒΑΡΒΑΡΑΣ,64,43,ΑΓΙΑ ΒΑΡΒΑΡΑ ΜΟΝΟΦΑΤΣΙΟΥ 70003
382,,35.29105377,24.88092995,ΚΕΝΤΡΟ ΥΓΕΙΑΣ ΑΝΩΓΕΙΩΝ,64,3,ΑΝΩΓΕΙΑ ΜΥΛΟΠΟΤΑΜΟΥ 74051
383,,35.1470871,25.26531601,ΚΕΝΤΡΟ ΥΓΕΙΑΣ ΑΡΚΑΛΟΧΩΡΙΟΥ,64,43,ΑΡΚΑΛΟΧΩΡΙ ΜΟΝΟΙΦΑΤΣΙΟΥ 70300
384,,35.40868378,24.19771385,ΚΕΝΤΡΟ ΥΓΕΙΑΣ ΒΑΜΟΥ,64,48,ΒΑΜΟΣ ΑΠΟΚΟΡΩΝΟΥ 73008
385,,35.05384827,25.41001892,ΚΕΝΤΡΟ ΥΓΕΙΑΣ ΒΙΑΝΝΟΥ,64,43,ΑΝΩ ΒΙΑΝΝΟΣ ΒΙΑΝΝΟΥ 70004
386,,35.49413681,23.65558434,ΚΕΝΤΡΟ ΥΓΕΙΑΣ ΚΙΣΣΑΜΟΥ,64,48,ΚΙΣΑΜΜΟΣ ΧΑΝΙΩΝ 73400
387,,34.94010544,24.83385277,ΚΕΝΤΡΟ ΥΓΕΙΑΣ ΜΟΙΡΩΝ,64,43,ΜΟΙΡΕΣ ΚΑΙΝΟΥΡΓΙΟΥ 70400
388,,35.3690033,24.69054413,ΚΕΝΤΡΟ ΥΓΕΙΑΣ ΠΕΡΑΜΑΤΟΣ,64,3,ΠΕΡΑΜΑ ΜΥΛΟΠΟΤΑΜΟΥ 74052
389,,35.51343536,24.03318024,ΚΨΥ ΧΑΝΙΩΝ,64,48,"ΚΡΟΚΙΔΑ 25, 73133"
390,,35.3348999,25.12963867,ΚΨΥ ΗΡΑΚΛΕΙΟΥ,64,43,"ΣΠΙΝΑΛΟΓΚΑΣ  1, 71201"
391,,35.18917847,25.71725464,ΝΓΝ ΑΓ. ΝΙΚΟΛΑΟΥ,70,24,"ΚΩΝΣΤ. ΠΑΛΑΙΟΛΟΓΟΥ, ΑΓΙΟΣ ΝΙΚΟΛΑΟΣ ΛΑΣΙΘΙΟΥ 72100"
392,,35.36686707,24.47472763,ΝΓΝ ΡΕΘΥΜΝΟΥ,70,3,"ΤΡΑΝΤΑΛΙΔΟΥ 17, ΡΕΘΥΜΝΟ 74100"
656,,39.62952805,22.42271423,ΔΗΜΟΣ ΝΙΚΑΙΑΣ,13,9,ΝΙΚΑΙΑ  ΛΑΡΙΣΑΣ
393,,35.4837265,24.01286888,"ΝΓΝ ΧΑΝΙΩΝ ""ΑΓ. ΓΕΩΡΓΙΟΣ""",70,48,ΜΟΥΡΝΙΕΣ ΧΑΝΙΩΝ  73300
394,,35.01313019,25.74230194,ΝΓΝ-ΚΕΝΤΡΟ ΥΓΕΙΑΣ ΙΕΡΑΠΕΤΡΑΣ,70,24,"ΚΑΛΗΜΕΡΑΚΗ 6, ΙΕΡΑΠΕΤΡΑ 72200"
395,,35.20780182,26.10635948,ΝΓΝ-ΚΕΝΤΡΟ ΥΓΕΙΑΣ ΣΗΤΕΙΑΣ,70,24,ΞΗΡΟΚΑΜΑΡΕΣ ΣΗΤΕΙΑΣ  72300
396,,35.33774567,25.13686371,ΝΟΜΑΡΧΙΑΚΗ ΑΥΤΟΔΙΟΙΚΗΣΗ ΗΡΑΚΛΕΙΟΥ,41,43,ΠΛΑΤΕΙΑ ΕΛΕΥΘΕΡΙΑΣ  71201 ΗΡΑΚΛΕΙΟ
397,,35.18905258,25.7180481,ΝΟΜΑΡΧΙΑΚΗ ΑΥΤΟΔΙΟΙΚΗΣΗ ΛΑΣΙΘΙΟΥ,41,24,"ΠΟΛΥΤΕΧΝΕΙΟΥ 1, 72100 ΑΓΙΟΣ ΝΙΚΟΛΑΟΣ"
398,,35.36996841,24.47014046,ΝΟΜΑΡΧΙΑΚΗ ΑΥΤΟΔΙΟΙΚΗΣΗ ΡΕΘΥΜΝΟΥ,41,3,ΠΛΑΤΕΙΑ ΗΡΩΩΝ ΠΟΛΥΤΕΧΝΕΙΟΥ 74100 ΡΕΘΥΜΝΟ
399,,35.51018524,24.03033638,ΝΟΜΑΡΧΙΑΚΗ ΑΥΤΟΔΙΟΙΚΗΣΗ ΧΑΝΙΩΝ,41,48,"ΠΛΑΤΕΙΑ ΕΛΕΥΘΕΡΙΑΣ 1, 73134 ΧΑΝΙΑ"
400,,35.29842758,25.1533432,"ΠΓΝ ΗΡΑΚΛΕΙΟΥ""ΒΕΝΙΖΕΛΕΙΟ/ΠΑΝΑΝΕΙΟ""",70,43,"ΛΕΩΦΟΡΟΣ ΚΝΩΣΣΟΥ, ΗΡΑΚΛΕΙΟ ΚΡΗΤΗΣ,  71409 Τ.Θ. 1044"
401,,35.33659363,25.13184738,ΠΕΡΙΦΕΡΕΙΑ ΚΡΗΤΗΣ,17,43,ΠΛΑΤΕΙΑ ΚΟΥΝΤΟΥΡΙΩΤΗ 71202 ΗΡΑΚΛΕΙΟ
402,,35.30485916,25.08339691,ΠΠΓΝ ΗΡΑΚΛΕΙΟΥ,70,43,Πανεπιστημιακό Γενικό Νοσοκομείο Ηρακλειου Ηράκλειο 70013 Ελλάδα
403,,39.07420731,21.82431221,ΣΓ ΑΓ. ΝΙΚΟΛΑΟΥ,56,24,ΩΣ
404,,35.33156204,25.15704727,ΣΓ ΗΡΑΚΛΕΙΟΥ,56,43,"ΠΙΤΣΟΥΛΑΚΗ & Γ. ΚΑΡΑΙΣΚΑΚΗ 2, 71307 ΗΡΑΚΛΕΙΟ"
405,,35.36686707,24.47472763,ΣΓ ΡΕΘΥΜΝΟΥ,56,3,"ΣΤΡΔΟ «ΚΟΥΝΔΟΥΡΑΚΗ», 44ου ΣΥΝΤΑΓΜΑΤΟΣ 74100 ΡΕΘΥΜΝΟ"
406,,35.51623535,24.01880646,ΣΓ ΧΑΝΙΩΝ,56,48,"ΣΤΡΔΟ «ΜΑΡΚΟΠΟΥΛΟΥ», ΟΔΟΣ ΜΑΛΙΝΟΥ ,        73100 ΧΑΝΙΑ"
407,,39.63209915,22.41993523,5η ΔΙΕΥΘΥΝΣΗ ΣΤΡΑΤΟΛΟΓΙΑΣ,56,9,"ΡΟΥΣΒΕΛΤ & ΠΑΤΡΟΚΛΟΥ 30, Τ.Κ. 412 22, ΛΑΡΙΣΑ"
408,,37.62970734,26.26589775,ΓΕΝΙΚΟ ΝΟΜΑΡΧΙΑΚΟ ΝΟΣΟΚΟΜΕΙΟ - ΚΕΝΤΡΟ ΥΓΕΙΑΣ ΙΚΑΡΙΑΣ,70,30,ΑΓ. ΚΗΡΥΚΟΣ 83300 ΙΚΑΡΙΑ
409,,39.64248276,22.42254257,"ΓΕΝΙΚΟ ΠΕΡΙΦΕΡΕΙΑΚΟ ΝΟΣΟΚΟΜΕΙΟ ΛΑΡΙΣΑΣ ""ΚΟΥΤΛΙΜΠΑΝΕΙΟ & ΤΡΙΑΝΤΑΦΥΛΛΕΙΟ",70,9,"ΤΣΑΚΑΛΩΦ 1, 41221 ΛΑΡΙΣΑ"
410,,41.11886978,25.40552711,Δ.Α. ΑΝΑΤ. ΜΑΚ. & ΘΡΑΚΗΣ,28,15,"ΛΟΧΑΓΟΥ ΟΡΦΑΝΟΥΔΑΚΗ & ΗΛΕΚΤΡΑΣ, ΚΟΜΟΤΗΝΗ"
411,,39.1078949,26.55537415,Δ.Α. ΒΟΡΕΙΟΥ ΑΙΓΑΙΟΥ,28,26,"1ο ΧΛΜ ΜΥΤΙΛΗΝΗΣ-ΛΟΥΤΡΩΝ, ΜΥΤΙΛΗΝΗ"
412,,40.29862213,21.79309464,Δ.Α. ΔΥΤ. ΜΑΚ.,28,52,"ΚΑΜΒΟΥΝΙΩΝ 16α, ΚΟΖΑΝΗ"
413,,39.65797806,22.43777847,Δ.Α. ΘΕΣΣΑΛΙΑΣ,28,9,"ΣΩΚΡΑΤΟΥΣ 111, ΛΑΡΙΣΑ"
414,,38.89989853,22.43334961,Δ.Α. ΣΤΕΡΕΑΣ ΕΛΛΑΔΑΣ,28,39,"ΥΨΗΛΑΝΤΗ 12, ΛΑΜΙΑ"
415,,40.98176575,24.95098305,ΔΗΜΟΣ ΑΒΔΗΡΩΝ,13,7,ΑΒΔΗΡΑ ΞΑΝΘΗΣ 67061
416,,40.53972244,21.40694427,ΔΗΜΟΣ ΑΓ. ΑΝΑΡΓΥΡΩΝ,13,41,ΔΗΜΟΤΙΚΟ ΜΕΓΑΡΟ -ΚΟΡΗΣΟΣ 52052
417,,39.23944473,22.27416611,ΔΗΜΟΣ ΑΓ. ΓΕΩΡΓΙΟΥ ΤΥΜΦΡΗΣΤΟΥ,13,39,"ΑΓΙΟΣ ΓΕΩΡΓΙΟΣ, ΦΘΙΩΤΙΔΑΣ 35017"
418,,37.63277817,26.2163887,ΔΗΜΟΣ ΑΓ. ΚΗΡΥΚΟΥ,13,30,"ΑΓΙΟΣ ΚΗΡΥΚΟΣ ΙΚΑΡΙΑΣ, 83300"
419,,38.75920868,22.85682487,ΔΗΜΟΣ ΑΓ. ΚΩΝΣΤΑΝΤΙΝΟΥ,13,39,"ΡΗΓΑ ΦΕΡΑΙΟΥ 8, 35006, ΑΓΙΟΣ ΚΩΝ/ΝΟΣ"
420,,38.3126564,26.13173103,ΔΗΜΟΣ ΑΓ. ΜΗΝΑ,13,19,"ΔΗΜΑΡΧΕΙΟ ΑΓ. ΜΗΝΑ, ΑΓ. ΜΗΝΑΣ- ΘΥΜΙΑΝΑ ΧΙΟΣ 821 00"
421,,40.51544189,21.69383621,ΔΗΜΟΣ ΑΓ. ΠΑΡΑΣΚΕΥΗΣ,13,52,ΔΗΜΟΣ ΑΓ. ΠΑΡΑΣΚΕΥΗΣ (¶γιος Χριστόφορος 50200 Πτολεμαϊδα )
422,,39.24860382,26.27284813,ΔΗΜΟΣ ΑΓ. ΠΑΡΑΣΚΕΥΗΣ,13,26,ΑΓΙΑ ΠΑΡΑΣΚΕΥΗ ΛΕΣΒΟΥ
424,,39.08286285,26.37262344,ΔΗΜΟΣ ΑΓΙΑΣΟΥ,13,26,ΑΓΙΑΣΟΣ 81101
425,,39.18076324,21.61837578,ΔΗΜΟΣ ΑΓΡΑΦΩΝ,13,29,36073 ΑΓΡΑΦΑ
426,,39.3405838,23.0124855,ΔΗΜΟΣ ΑΓΡΙΑΣ,13,37,ΝΙΚ. & ΕΛ. ΠΟΡΦΥΡΟΓΕΝΗ 2 37300
427,,40.62202835,21.50507355,ΔΗΜΟΣ ΑΕΤΟΥ,13,23,53075 ΣΚΛΗΘΡΟ- ΑΕΤΟΣ ΦΛΩΡΙΝΑΣ
428,,40.16513443,21.82089043,ΔΗΜΟΣ ΑΙΑΝΗΣ,13,52,ΑΙΑΝΗ 50004
429,,41.15089798,25.42596817,ΔΗΜΟΣ ΑΙΓΕΙΡΟΥ,13,15,ΑΙΓΕΙΡΟΣ 69100 ΚΟΜΟΤΗΝΗ
430,,40.49983597,22.54346085,ΔΗΜΟΣ ΑΙΓΙΝΙΟΥ,13,36,"ΔΗΜΑΡΧΕΙΟ ΑΙΓΙΝΙΟΥ, Κ. ΚΑΡΑΜΑΝΛΗ38, 60300, ΑΙΓΙΝΙΟ"
431,,38.85710144,23.04884529,ΔΗΜΟΣ ΑΙΔΗΨΟΥ,13,6,25 ΜΑΡΤΙΟΥ 39 34300 Λ. ΑΙΔΗΨΟΥ
432,,39.45867538,21.62044525,ΔΗΜΟΣ ΑΙΘΗΚΩΝ,13,16,ΔΗΜΟΣ ΑΙΘΗΚΩΝ (Ελάτη 42032 Πύλη )
433,,39.35772324,22.89357758,ΔΗΜΟΣ ΑΙΣΩΝΙΑΣ,13,37,"ΔΗΜΟΤΙΚΟ ΔΙΑΜΕΡΙΣΜΑ ΔΙΜΗΝΙΟΥ, 38500"
434,,38.45765686,23.2199688,ΔΗΜΟΣ ΑΚΡΑΙΦΝΙΑΣ,13,8,32200 ΑΚΡΑΙΦΝΙΟ ΒΟΙΩΤΙΑΣ
435,,40.48771667,20.986763,ΔΗΜΟΣ ΑΚΡΙΤΩΝ,13,41,ΔΙΠΟΤΑΜΙΑ 52050 ΑΚΡΙΤΕΣ
436,,40.62837601,22.44339752,ΔΗΜΟΣ ΑΛΕΞΑΝΔΡΕΙΑΣ,13,11,"ΕΘΝΙΚΗΣ ΑΝΤΙΣΤΑΣΕΩΣ 42, 593100, ΑΛΕΞΑΝΔΡΕΙΑ"
437,,40.84881592,25.8731842,ΔΗΜΟΣ ΑΛΕΞΑΝΔΡΟΥΠΟΛΗΣ,13,25,ΔΗΜΟΣ ΑΛΕΞΑΝΔΡΟΥΠΟΛΗΣ (Λεωφ. Δημοκρατίας 306 68100 Αλεξανδρούπολη )
438,,40.50937271,21.15548897,ΔΗΜΟΣ ΜΕΣΟΠΟΤΑΜΙΑΣ,13,41,"ΜΕΣΟΠΟΤΑΜΙΑ, ΔΗΜΑΡΧΕΙΟ"
439,,38.37259674,23.09915161,ΔΗΜΟΣ ΑΛΙΑΡΤΟΥ,13,8,ΑΛΙΑΡΤΟΣ ΒΟΙΩΤΙΑΣ 32001
440,,41.01311874,23.92593002,ΔΗΜΟΣ ΑΛΙΣΤΡΑΤΗΣ,13,45,"ΑΛΙΣΤΡΑΤΗ ΣΕΡΡΩΝ, 62045"
441,,39.18275833,22.75943184,ΔΗΜΟΣ ΑΛΜΥΡΟΥ,13,37,ΒΑΣ. ΚΩΝ/ΝΟΥ 117 ΙΑΣΟΝΟΣ 37100 ΑΛΜΥΡΟΣ
1636,,37.96155167,23.71033669,ΦΑΕΕ ΑΘΗΝΩΝ,26,51,Θησέως 55-57 ΑΘΗΝΑ
442,,39.14897156,23.84428024,ΔΗΜΟΣ ΑΛΟΝΝΗΣΟΥ,13,37,"ΔΗΝΑΡΧΕΙΟ ΔΗΜΟΥ ΑΛΟΝΝΗΣΟΥ, ΜΑΓΝΗΣΙΑ"
443,,38.48405457,25.92686462,ΔΗΜΟΣ ΑΜΑΝΗΣ,13,19,ΔΗΜΟΣ ΑΜΑΝΗΣ ΒΟΛΙΣΣΟΣ 82103
444,,39.7519455,22.36954117,ΔΗΜΟΣ ΑΜΠΕΛΩΝΑ,13,9,"Δ. ΓΚΟΛΙΤΣΙΟΥ 1, 40400"
445,,40.68333435,21.68333244,ΔΗΜΟΣ ΑΜΥΝΤΑΙΟΥ,13,23,"ΓΡ. ΝΙΚΟΛΑ'Ι'ΔΗ 2 53200, ΑΜΥΝΤΑΙΟ"
446,,38.64857864,22.59602737,ΔΗΜΟΣ ΑΜΦΙΚΛΕΙΑΣ,13,39,"ΑΝΩ ΠΛΑΤΕΙΑ ΠΑΡΝΑΣΣΟΥ, 35002 ΑΜΦΙΚΛΕΙΑ"
447,,40.92198181,23.97289848,ΔΗΜΟΣ ΑΜΦΙΠΟΛΗΣ,13,45,620 41 ΡΟΔΟΛΙΒΟΥΣ
448,,38.52732849,22.37840652,ΔΗΜΟΣ ΑΜΦΙΣΣHΣ,13,34,"ΡΗΓΑ ΚΟΝΤΟΡΗΓΑ 10, ΑΜΦΙΣΣΑ 33100"
449,,40.05862808,22.5606842,ΔΗΜΟΣ ΑΝΑΤ. ΟΛΥΜΠΟΥ,13,36,"ΒΑΣΙΛΙΣΣΗΣ ΟΛΓΑΣ 2, ΛΕΠΤΟΚΑΡΥΑ ΠΙΕΡΙΑΣ"
450,,40.63366318,22.12938881,ΔΗΜΟΣ ΑΝΘΕΜΙΩΝ,13,11,"ΕΡΜΟΥ 71, ΚΟΠΑΝΟΣ, 59035"
451,,40.46666718,23.28333282,ΔΗΜΟΣ ΑΝΘΕΜΟΥΝΤΑ,13,20,Δ.Δ ΓΑΛΑΤΙΣΤΑΣ ΧΑΛΚΙΔΙΚΗΣ 63073
452,,38.48402405,23.54759598,ΔΗΜΟΣ ΑΝΘΗΔΟΝΟΣ,13,6,Ε. ΚΟΝΤΟΓΑΙΝΝΗ 5- ΔΡΟΣΙΑ 34100
453,,39.94298553,21.96801376,ΔΗΜΟΣ ΑΝΤΙΧΑΣΙΩΝ,13,9,ΚΡΑΝΕΑ ΕΛΑΣΣΟΝΑΣ 40001
454,,40.98540115,22.54045677,ΔΗΜΟΣ ΑΞΙΟΥΠΟΛΗΣ,13,14,ΔΗΜΟΣ ΑΞΙΟΥΠΟΛΗΣ (Πλ. Παύλου Μελά 1 61400 Αξιούπολη )
455,,39.10266495,21.50998306,ΔΗΜΟΣ ΑΠΕΡΑΝΤΙΩΝ,13,29,"ΓΡΑΝΙΤΣΑ, 36072"
456,,38.48899841,22.59602737,ΔΗΜΟΣ ΑΡΑΧΩΒΗΣ,13,8,"ΑΡΑΧΩΒΑ, 32004"
457,,39.22597122,23.21939087,ΔΗΜΟΣ ΑΡΓΑΛΑΣΤΗΣ,13,37,37006 ΑΡΓΑΛΑΣΤΗ
458,,39.32893753,21.49607468,ΔΗΜΟΣ ΑΡΓΙΘΕΑΣ,13,33,"ΑΝΘΗΡΟ ΑΡΓΙΘΕΑΣ, ΚΑΡΔΙΤΣΑ 43065"
459,,40.97311783,22.06318092,ΔΗΜΟΣ ΑΡΙΔΑΙΑΣ,13,5,"ΠΛΑΤΕΙΑ ΑΓΓΕΛΗ ΓΑΤΣΟΥ, 58400, ΑΡΙΔΑΙΑ"
461,,40.48729706,23.59249496,ΔΗΜΟΣ ΑΡΝΑΙΑΣ,13,20,"63074, ΑΡΝΑΙΑ ΧΑΛΚΙΔΙΚΗΣ"
462,,39.36099243,22.03982544,ΔΗΜΟΣ ΑΡΝΗΣ,13,33,ΜΑΤΑΡΑΓΚΑ ΚΑΡΔΙΤΣΑΣ 43300 ΣΟΦΑΔΕΣ
463,,41.02739716,25.69888687,ΔΗΜΟΣ ΑΡΡΙΑΝΩΝ,13,15,"ΑΡΡΙΑΝΑ ΝΟΜΟΥ ΡΟΔΟΠΗΣ, 69300"
464,,39.32727814,23.05177116,ΔΗΜΟΣ ΑΡΤΕΜΙΔΟΣ,13,37,ΑΝΩ ΛΕΧΩΝΙΑ ΑΡΤΕΜΙΔΟΣ ΜΑΓΝΗΣΙΑΣ
465,,39.00920486,23.22743225,ΔΗΜΟΣ ΑΡΤΕΜΙΣΙΟΥ,13,6,ΑΡΤΕΜΙΣΙΟ 34200
466,,39.15343857,21.451437,ΔΗΜΟΣ ΑΣΠΡΟΠΟΤΑΜΟΥ,13,29,"ΡΑΠΤΟΠΟΥΛΟ 36070,  ΕΥΡΥΤΑΝΙΑ"
467,,38.65465546,22.9948864,ΔΗΜΟΣ ΑΤΑΛΑΝΤΗΣ,13,39,"ΠΛΑΤΕΙΑ ΔΗΜΑΡΧΕΙΟΥ 1, ΑΤΑΛΑΝΤΗ, 35200"
468,,39.94726944,25.22647667,ΔΗΜΟΣ ΑΤΣΙΚΗΣ,13,26,ΑΤΣΙΚΗ ΛΗΜΝΟΥ 81401
469,,38.40727997,23.60655022,ΔΗΜΟΣ ΑΥΛΙΔΟΣ,13,6,"ΦΑΡΟΥ 21, ΒΑΘΥ ΑΥΛΙΔΟΣ, 34100"
470,,38.5,24.13333321,ΔΗΜΟΣ ΑΥΛΩΝΟΣ,13,6,"ΑΥΛΩΝΑΡΙ, 34009"
471,,39.3065033,23.21700478,ΔΗΜΟΣ ΑΦΕΤΩΝ,13,37,"ΝΕΟΧΩΡΙ ΜΑΓΝΗΣΙΑΣ, 37010"
472,,40.90791702,23.50035477,ΔΗΜΟΣ ΑΧΙΝΟΥ,13,45,ΣΙΤΟΧΩΡΙ 62200 ΝΙΓΡΙΤΑ
473,,38.33154678,23.16798019,ΔΗΜΟΣ ΒΑΓΙΩΝ,13,8,"ΒΑΓΙΑ ΒΟΙΩΤΙΑΣ, 32002"
474,,37.75902176,26.97490692,ΔΗΜΟΣ ΒΑΘΕΟΣ,13,30,ΠΛΑΤΕΙΑ ΔΗΜΑΡΧΟΥ 83100 ΣΑΜΟΣ (300 ΠΕΡΙΠΟΥ ΜΕΤΡΑ ΑΠΌ ΤΟΝ ΟΤΕ)
475,,38.54972076,22.05999947,ΔΗΜΟΣ ΒΑΡΔΟΥΣΙΩΝ,13,34,"ΚΡΟΚΥΛΕΙΟ ΦΩΚΙΔΟΣ, 33061"
476,,39.696064,21.64015007,ΔΗΜΟΣ ΒΑΣΙΛΙΚΗΣ,13,16,ΒΑΣΙΛΙΚΗ ΤΡΙΚΑΛΩΝ 42200
477,,40.79496002,21.83641815,ΔΗΜΟΣ ΒΕΓΟΡΙΤΙΔΟΣ,13,5,ΑΡΝΙΣΣΑ 58002
478,,40.24268341,22.03365898,ΔΗΜΟΣ ΒΕΛΒΕΝΤΟΥ,13,52,"ΒΕΛΒΕΝΤΟ, 50400"
479,,40.16802597,21.49468231,ΔΗΜΟΣ ΒΕΝΤΖΙΟΥ,13,10,"ΚΝΙΔΗ ΓΡΕΒΕΝΩΝ, 51100"
480,,40.4860878,22.31770706,ΔΗΜΟΣ ΒΕΡΓΙΝΑΣ,13,11,"ΑΝΤΙΓΟΝΟΥ ΓΟΝΑΤΑ 17, ΒΕΡΓΙΝΑ, 59031"
481,,40.52288055,22.20408058,ΔΗΜΟΣ ΒΕΡΟΙΑΣ,13,11,"ΜΗΤΡΟΠΟΛΕΩΣ 46, 59100"
482,,38.98888779,21.68666649,ΔΗΜΟΣ ΒΙΝΙΑΝΗΣ,13,29,"ΚΕΡΑΣΟΧΩΡΙ ΕΥΡΥΤΑΝΙΑΣ, 36071"
483,,40.90791702,23.50035477,ΔΗΜΟΣ ΒΙΣΑΛΤΙΑΣ,13,45,"ΔΗΜΟΣ ΒΙΣΑΛΤΙΑΣ, ΔΗΜΙΤΡΙΤΣΙ ΣΕΡΡΩΝ 62200, ΝΙΓΡΙΤΑ"
484,,41.06146622,24.9625721,ΔΗΜΟΣ ΒΙΣΤΩΝΙΔΟΣ,13,7,ΓΕΝΙΣΕΑ ΞΑΝΘΗΣ 67064
485,,40.60327148,21.32027435,ΔΗΜΟΣ ΒΙΤΣΙΟΥ,13,41,ΤΟΙΧΙΟ 52059 ΒΙΤΣΙ
486,,39.36461639,22.93321228,ΔΗΜΟΣ ΒΟΛΟΥ,13,37,"ΠΛΑΤΕΙΑ ΡΗΓΑ ΦΕΡΑΙΟΥ, 38001, ΒΟΛΟΣ"
487,,41.58207321,26.54918861,ΔΗΜΟΣ ΒΥΣΣΑΣ,13,25,25ης ΜΑΡΤΙΟΥ 8 68001 ΝΕΑ ΒΥΣΣΑ
488,,38.37908554,22.38145828,ΔΗΜΟΣ ΓΑΛΑΞΙΔΙΟΥ,13,34,"ΤΣΑΛΑΓΓΥΡΑ 4, 33052 ΓΑΛΑΞΙΔΙ"
489,,40.99345779,22.87170601,ΔΗΜΟΣ ΓΑΛΛΙΚΟΥ,13,14,"ΚΑΜΠΑΝΗ ΚΙΛΚΙΣ, 61100"
490,,39.04983139,26.44299507,ΔΗΜΟΣ ΓΕΡΑΣ,13,26,"ΔΗΜΑΡΧΕΙΟ ΓΕΡΑΣ, ΠΑΠΑΔΟΣ, 81106 ΛΕΣΒΟΣ"
491,,40.79335022,22.41147423,ΔΗΜΟΣ ΓΙΑΝΝΙΤΣΩΝ,13,5,ΓΚΟΝΟΥ ΓΙΩΤΑ 2 58100
492,,39.63661194,22.41300964,ΔΗΜΟΣ ΓΙΑΝΝΟΥΛΗΣ,13,9,"ΑΘΑΝΑΣΙΟΥ ΔΙΑΚΟΥ 17, 41500"
493,,39.49482346,21.68385315,ΔΗΜΟΣ ΓΟΜΦΩΝ,13,16,ΔΗΜΟΣ ΓΟΜΦΩΝ (Λυγαριά 42100 Τρίκαλα )
494,,39.86093903,22.47624016,ΔΗΜΟΣ ΓΟΝΝΩΝ,13,9,ΓΟΝΝΟΙ 40004
495,,40.08358765,21.42619705,ΔΗΜΟΣ ΓΟΡΓΙΑΝΗΣ,13,10,"ΚΗΠΟΥΡΕΙΟ ΓΡΕΒΕΝΩΝ, 51100 ΓΡΕΒΕΝΑ"
496,,38.89989853,22.43334961,ΔΗΜΟΣ ΓΟΡΓΟΠΟΤΑΜΟΥ,13,39,ΜΟΣΧΟΧΩΡΙ 35100 ΛΑΜΙΑ
497,,38.67079163,22.43065071,ΔΗΜΟΣ ΓΡΑΒΙΑΣ,13,34,ΓΡΑΒΙΑ ΝΕΑΣ ΦΩΚΙΔΑΣ 330 57 ΓΡΑΒΙΑ
498,,40.08358765,21.42619705,ΔΗΜΟΣ ΓΡΕΒΕΝΩΝ,13,10,"ΠΛΑΤΕΙΑ ΕΛΕΥΘΕΡΙΑΣ 1, 51100, ΓΡΕΒΕΝΑ"
499,,40.39216614,21.79182053,ΔΗΜΟΣ Δ. ΥΨΗΛΑΝΤΗ,13,52,"ΜΑΥΡΟΔΕΝΔΡΙ 50100, ΚΟΖΑΝΗ"
500,,38.51492691,22.73290062,ΔΗΜΟΣ ΔΑΥΛΕΙΑΣ,13,8,"ΔΑΥΛΕΙΑ ΒΟΙΩΤΙΑΣ, 320 08"
501,,38.70728683,23.03694153,ΔΗΜΟΣ ΔΑΦΝΟΥΣΙΩΝ,13,39,"ΠΛΑΤΕΙΑ ΟΔΥΣΣΕΑ ΑΝΔΡΟΥΤΣΟΥ, ΛΙΒΑΝΑΤΕΣ, 35007"
502,,38.48041153,22.49053764,ΔΗΜΟΣ ΔΕΛΦΩΝ,13,34,ΑΠΟΛΛΩΝΟΣ 11 ΦΩΚΙΔΑ
503,,38.21402359,23.49406815,ΔΗΜΟΣ ΔΕΡΒΕΝΟΧΩΡΙΩΝ,13,8,ΠΥΛΗ ΒΟΙΩΤΙΑΣ 32200
504,,39.84873199,21.72064209,ΔΗΜΟΣ ΔΕΣΚΑΤΗΣ,13,10,"ΔΗΜΟΣ ΔΕΣΚΑΤΗΣ, 51200, ΔΕΚΑΤΗ ΓΡΕΒΕΝΩΝ"
505,,38.41726685,22.52948189,ΔΗΜΟΣ ΔΕΣΦΙΝΑΣ,13,34,"ΠΛΑΤΕΙΑ ΗΣΑΙΑ 1, 33050 ΔΕΣΦΙΝΑ ΦΩΚΙΔΑΣ"
506,,41.34780502,26.49311066,ΔΗΜΟΣ ΔΙΔΥΜΟΤΕΙΧΟΥ,13,25,"Β. ΓΕΩΡΓΙΟΥ 1, 68300 ΔΙΔΥΜΟΤΕΙΧΟ"
507,,40.22887039,22.45994568,ΔΗΜΟΣ ΔΙΟΥ,13,36,ΚΟΝΤΑΡΙΩΤΙΣΣΑ 60100
508,,38.58270645,23.83878517,ΔΗΜΟΣ ΔΙΡΦΥΩΝ,13,6,"ΣΤΕΝΗ, 34014"
509,,38.3981514,24.13733673,ΔΗΜΟΣ ΔΙΣΤΥΩΝ,13,6,ΚΡΙΕΖΑ 34017
510,,40.52605438,22.20299911,ΔΗΜΟΣ ΔΟΒΡΑ,13,11,"ΑΛΕΞΑΝΔΡΟΥ ΠΑΠΑΓΟΥ 14, ΑΓΙΟΣ ΓΕΩΡΓΙΟΣ, 59100 ΒΕΡΟΙΑ"
511,,41.15452576,22.79863358,ΔΗΜΟΣ ΔΟΙΡΑΝΗΣ,13,14,"ΔΡΟΣΑΤΟ ΚΙΛΚΙΣ, 61003"
512,,38.79639053,21.85138893,ΔΗΜΟΣ ΔΟΜΝΙΣΤΑΣ,13,29,"ΚΡΙΚΕΛΛΟ ΕΥΡΥΤΑΝΙΑΣ, 36076"
513,,39.12754822,22.30306053,ΔΗΜΟΣ ΔΟΜΟΚΟΥ,13,39,"ΠΛΑΤΡΕΙΑ ΜΟΥΣΩΝ, 35010, ΔΟΜΟΚΟΣ"
514,,41.14990997,24.14639664,ΔΗΜΟΣ ΔΡΑΜΑΣ,13,2,"ΠΛΑΤΕΙΑ ΕΛΕΥΘΕΡΙΑΣ 1, 66100"
515,,40.82789612,21.99994278,ΔΗΜΟΣ ΕΔΕΣΣΗΣ,13,5,"ΠΛΑΤΕΙΑ ΑΙΓΩΝ 1, 58200, ΕΔΕΣΣΑ"
516,,40.67451477,22.19978905,ΔΗΜΟΣ ΕΙΡΗΝΟΥΠΟΛΗΣ,13,11,ΛΕΩΦ. ΕΙΡΗΝΗΣ 195 59034
517,,39.89468002,22.18857574,ΔΗΜΟΣ ΕΛΑΣΣΟΝΟΣ,13,9,"6ης ΟΚΤΩΒΡΙΟΥ 57, 40200 ΕΛΑΣΣΟΝΑ"
518,,38.64575958,22.7807579,ΔΗΜΟΣ ΕΛΑΤΕΙΑΣ,13,39,"28Ης ΟΚΤΩΒΡΙΟΥ 12, 35004, ΕΛΑΤΕΙΑ"
519,,40.3133049,22.46558189,ΔΗΜΟΣ ΕΛΑΦΙΝΑΣ,13,36,"Π. ΚΕΡΑΜΙΔΙ ΠΙΕΡΙΑΣ, 60100"
520,,40.92085648,24.27708435,ΔΗΜΟΣ ΕΛΕΥΘΕΡΟΥΠΟΛΗΣ,13,13,ΦΡ. ΠΑΠΑΧΡΗΣΤΙΔΗ 137 ' 64100 ΕΛΕΥΘΕΡΟΥΠΟΛΗ
521,,40.83855438,24.30334091,ΔΗΜΟΣ ΕΛΕΥΘΕΡΩΝ,13,13,"ΦΙΛΙΠΠΟΥ 5 ΝΕΑ ΠΕΡΑΜΟΣ 64007, ΝΟΜΟΥ ΚΑΒΑΛΑΣ"
522,,40.29704285,21.79603767,ΔΗΜΟΣ ΕΛΙΜΕΙΑΣ,13,52,"ΑΛΙΑΚΜΟΝΟΣ 20, 50010 ΚΡΟΚΟΣ"
523,,38.76666641,23.31666756,ΔΗΜΟΣ ΕΛΥΜΝΙΩΝ,13,6,34005 ΛΙΜΝΗ ΕΥΒΟΙΑΣ
524,,41.05925369,23.64888954,ΔΗΜΟΣ ΕΜ. ΠΑΠΠΑ,13,45,ΧΡΥΣΟ ΣΕΡΡΩΝ
525,,41.07333755,22.21455765,ΔΗΜΟΣ ΕΞΑΠΛΑΤΑΝΟΥ,13,5,"Μ. ΑΛΕΞΑΝΔΡΟΥ 12, 58004, ΕΞΑΠΛΑΤΑΝΟΣ"
526,,39.14107132,26.06503105,ΔΗΜΟΣ ΕΡΕΣΟΥ - ΑΝΤΙΣΣΗΣ,13,26,ΕΡΕΣΟΣ ΛΕΣΒΟΥ 81105
527,,38.39237213,23.7951355,ΔΗΜΟΣ ΕΡΕΤΡΙΑΣ,13,6,"ΑΡΧΑΙΟΥ ΘΕΑΤΡΟΥ 1, 34008 ΕΡΕΤΡΙΑ"
528,,39.55979538,21.84296036,ΔΗΜΟΣ ΕΣΤΙΑΙΩΤΙΔΟΣ,13,16,"Δ.Δ. ΜΕΓΑΛΟΧΩΡΙΟΥ, 42100"
529,,37.63277817,26.2163887,ΔΗΜΟΣ ΕΥΔΗΛΟΥ,13,30,"ΕΥΔΗΛΟΣ ΙΚΑΡΙΑΣ, 83302"
530,,38.45271683,21.97609711,ΔΗΜΟΣ ΕΥΠΑΛΙΟΥ,13,34,ΕΥΠΑΛΙΟ 33056
531,,39.11050034,26.41183853,ΔΗΜΟΣ ΕΥΕΡΓΕΤΟΥΛΑ,13,26,ΣΥΚΟΥΝΤΑ 81101 ΑΓΙΑΣΟΣ
532,,39.86779404,22.73108482,ΔΗΜΟΣ ΕΥΡΥΜΕΝΩΝ,13,9,"ΣΤΟΜΙΟ ΛΑΡΙΣΑΣ, 40007"
533,,40.89703369,22.55341911,ΔΗΜΟΣ ΕΥΡΩΠΟΥ,13,14,"ΕΥΡΩΠΟΣ ΚΙΛΚΙΣ, 61007"
534,,38.89044952,22.78157997,ΔΗΜΟΣ ΕΧΙΝΑΙΩΝ,13,39,ΡΑΧΕΣ ΦΘΙΩΤΙΔΑΣ
535,,39.44194031,23.10450935,ΔΗΜΟΣ ΖΑΓΟΡΑΣ,13,37,"ΖΑΓΟΡΑ, 37001"
536,,40.50095749,23.45083046,ΔΗΜΟΣ ΖΕΡΒΟΧΩΡΙΩΝ,13,20,"ΔΗΜΟΣ ΖΕΡΒΟΧΩΡΙΩΝ, ΠΑΛΑΙΟΧΩΡΑ 63073"
537,,41.18293762,23.28198433,ΔΗΜΟΣ ΗΡΑΚΛΕΙΑΣ,13,45,"ΠΛ. ΜΠΑΚΟΓΙΑΝΝΗ 2, 62400, ΗΡΑΚΛΕΙΑ ΣΕΡΡΩΝ"
538,,40.08358765,21.42619705,ΔΗΜΟΣ ΗΡΑΚΛΕΩΤΩΝ,13,10,"ΑΓΙΟΥ ΓΕΩΡΓΙΟΥ , ΠΟΛΙΤΙΣΤΙΚΟ ΚΕΝΤΡΟ 51030, ΑΓ. ΓΕΩΡΓΙΟΣ"
539,,40.08358765,21.42619705,ΔΗΜΟΣ Θ. ΖΙΑΚΑ,13,10,ΜΑΥΡΟΝΑΙΟΙ 51100 ΓΡΕΒΕΝΑ
540,,40.73441315,24.72616577,ΔΗΜΟΣ ΘΑΣΟΥ,13,13,"ΠΙΕΡ ΝΤΕ ΒΑΜΠΕΖ, 64004 ΘΑΣΟΣ"
541,,39.23944473,22.27416611,ΔΗΜΟΣ ΘΕΣΣΑΛΙΩΤΙΔΟΣ,13,39,ΝΈΟ ΜΟΝΑΣΤΗΡΙ ΦΘΙΩΤΙΔΑΣ 35010
542,,38.31975937,23.31760216,ΔΗΜΟΣ ΘΗΒΑΙΩΝ,13,8,"ΠΙΝΔΑΡΟΥ & ΟΙΔΙΠΟΔΟΣ 21, ΘΗΒΑ 32200"
543,,38.25328064,22.98080254,ΔΗΜΟΣ ΘΙΣΒΗΣ,13,8,"ΔΗΜΟΣ ΘΙΣΒΗΣ, ΔΟΜΒΡΑΙΝΑ ΒΟΙΩΤΙΑΣ 32010"
544,,41.12813568,25.18761253,ΔΗΜΟΣ ΙΑΣΜΟΥ,13,15,"ΕΘΝΙΚΗΣ ΑΜΥΝΗΣ 4, 69200 ΙΑΣΜΟΣ"
545,,39.41540527,21.79940605,ΔΗΜΟΣ ΙΘΩΜΗΣ,13,33,"ΦΑΝΑΡΙ - ΚΑΡΔΙΤΣΑΣ, 43064"
546,,38.95357513,23.15097046,ΔΗΜΟΣ ΙΣΤΙΑΙΑΣ,13,6,ΔΗΜΟΣ ΙΣΤΙΑΙΑΣ (34200 Ιστιαία )
547,,38.43245697,22.42739296,ΔΗΜΟΣ ΙΤΕΑΣ,13,34,"ΗΛΙΑ ΤΡΙΓΚΑ 47, ΙΤΕΑ ΦΩΚΙΔΑΣ, 33200"
548,,39.38196945,22.97362518,ΔΗΜΟΣ ΙΩΛΚΟΥ,13,37,ΑΝΑΚΑΣΙΑ ΔΗΜΟΥ ΙΩΛΚΟΥ ΜΑΓΝΗΣΙΑΣ 38500
549,,38.29206848,26.10122108,ΔΗΜΟΣ ΙΩΝΙΑΣ,13,19,"ΑΓ. ΕΙΡΗΝΗΣ 5,  ΚΑΛΛΙΜΑΣΙΑ 82100 ΧΙΟΣ"
550,,40.41479492,21.38062286,ΔΗΜΟΣ ΙΩΝΟΣ ΔΡΑΓΟΥΜΗ,13,41,52053 ΒΟΓΑΤΣΙΚΟ
551,,40.93759918,24.4079361,ΔΗΜΟΣ ΚΑΒΑΛΑΣ,13,13,"ΚΥΠΡΟΥ 10, 65403 ΚΑΒΑΛΑ"
1177,,36.33613205,28.17326355,ΔΗΜΟΣ ΚΑΛΛΙΘΕΑΣ,13,18,ΚΑΛΥΘΙΕΣ 85105
552,,39.70661926,21.62887383,ΔΗΜΟΣ ΚΑΛΑΜΠΑΚΑΣ,13,16,"ΕΥΘΥΜΙΟΥ ΒΛΑΧΑΒΑ 3, 42200 ΚΑΛΑΜΠΑΚΑ"
553,,41.05073166,24.18819618,ΔΗΜΟΣ ΚΑΛΑΜΠΑΚΙΟΥ,13,2,"ΠΛΑΤΕΙΑ ΕΛΕΥΘΕΡΙΑΣ, ΚΑΛΑΜΠΑΚΙ ΔΡΑΜΑΣ, 66031"
554,,39.54991913,21.6590519,ΔΗΜΟΣ ΚΑΛΛΙΔΕΝΔΡΟΥ,13,16,"ΒΑΛΤΙΝΟ ΤΡΙΚΑΛΩΝ, 42100"
555,,38.72916794,22.23111153,ΔΗΜΟΣ ΚΑΛΛΙΕΩΝ,13,34,ΜΑΥΡΟΛΙΘΑΡΙ Ν. ΦΩΚΙΔΑΣ 33053
556,,40.31666565,23.06666756,ΔΗΜΟΣ ΚΑΛΛΙΚΡΑΤΕΙΑΣ,13,20,ΚΑΛΛΙΚΡΑΤΕΙΑ ΧΑΛΚΙΔΙΚΗΣ
557,,39.27487564,21.95456123,ΔΗΜΟΣ ΚΑΛΛΙΦΩΝΙΟΥ,13,33,"ΔΗΜΟΤΙΚΟ ΔΙΑΜΕΡΙΣΜΑ ΚΑΛΛΙΦΩΝΙΟΥ, Ν .ΚΑΡΔΙΤΣΑΣ"
558,,39.23170471,26.20510292,ΔΗΜΟΣ ΚΑΛΛΟΝΗΣ,13,26,ΚΑΛΛΟΝΗ 81107 ΛΕΣΒΟΣ
559,,38.78289795,22.78844452,ΔΗΜΟΣ ΚΑΜΕΝΩΝ ΒΟΥΡΛΩΝ,13,39,"ΑΓΙΟΥ ΠΑΝΤΕΛΕΗΜΟΝΑ 8, 35008 ΚΑΜ. ΒΟΥΡΛΑ"
560,,39.36325455,21.97217751,ΔΗΜΟΣ ΚΑΜΠΟΥ,13,33,ΣΤΑΥΡΟΣ ΚΑΡΔΙΤΣΑ 43100
561,,38.36380386,26.13723183,ΔΗΜΟΣ ΚΑΜΠΟΧΩΡΩΝ,13,19,"ΔΗΜΑΡΧΕΙΟ ΚΑΜΠΟΧΩΡΩΝ, 82100, ΧΑΛΚΕΙΟΣ, ΧΙΟΣ"
562,,38.54266739,26.10484314,ΔΗΜΟΣ ΚΑΡΔΑΜΥΛΩΝ,13,19,"ΜΑΡΜΑΡΟ, 82300 ΚΑΡΔΑΜΥΛΑ ΧΙΟΣ"
563,,39.38814926,21.92901421,ΔΗΜΟΣ ΚΑΡΔΙΤΣΑΣ,13,33,"ΑΡΤΕΣΙΑΝΟΥ 1, 43100"
564,,39.44094467,22.78671646,ΔΗΜΟΣ ΚΑΡΛΑΣ,13,37,ΔΗΜΟΣ ΚΑΡΛΑΣ ΜΑΓΝΗΣΙΑΣ
565,,37.78333282,26.70000076,ΔΗΜΟΣ ΚΑΡΛΟΒΑΣΙΩΝ,13,30,ΚΑΡΛΟΒΑΣΙ 83200 ΣΑΜΟΣ
566,,38.91724396,21.79437065,ΔΗΜΟΣ ΚΑΡΠΕΝΗΣΙΟΥ,13,29,"ΕΘΝΙΚΗΣ ΑΝΤΙΣΤΑΣΗΣ 1, ΚΑΡΠΕΝΗΣΙ 36100"
567,,38.016819,24.42039299,ΔΗΜΟΣ ΚΑΡΥΣΤΟΥ,13,6,Ι.ΚΟΤΣΙΚΑ 2 34001 ΚΑΡΥΣΤΟΣ ΕΥΒΟΙΑΣ
568,,40.04799271,23.41212463,ΔΗΜΟΣ ΚΑΣΣΑΝΔΡΕΙΑΣ,13,20,ΔΗΜΟΣ ΚΑΣΣΑΝΔΡΕΙΑΣ (63077 Κασσάνδρεια )
569,,39.72448349,21.44610405,ΔΗΜΟΣ ΚΑΣΤΑΝΙΑΣ,13,16,ΜΗΛΟΤΟΠΟΣ ΚΑΣΤΑΝΙΑΣ 42036 ΚΑΣΤΑΝΙΑ ΤΡΙΚΑΛΩΝ
570,,40.51921844,21.26817322,ΔΗΜΟΣ ΚΑΣΤΟΡΙΑΣ,13,41,ΣΚΑΠΕΡΔΕΙΟΣ ΑΓΟΡΑ 52100
571,,40.27148056,22.50866127,ΔΗΜΟΣ ΚΑΤΕΡΙΝΗΣ,13,36,"ΠΛΑΤΕΙΑ ΝΕΟΥ ΔΗΜΑΡΧΕΙΟΥ, 60100, ΚΑΤΕΡΙΝΗ"
572,,40.78229904,21.40983391,ΔΗΜΟΣ ΚΑΤΩ ΚΛΕΙΝΩΝ,13,23,ΚΑΤΩ ΚΛΕΙΝΕΣ 53100 ΦΛΩΡΙΝΑ
573,,41.07156754,23.37142563,ΔΗΜΟΣ Κ. ΜΗΤΡΟΥΣΙΟΥ,13,45,"ΠΡΟΒΑΤΑΣ ΣΕΡΡΩΝ, 62100"
574,,39.91934586,22.59001732,ΔΗΜΟΣ ΚΑΤΩ ΟΛΥΜΠΟΥ,13,9,40007 ΠΥΡΓΕΤΟΣ
575,,40.89219666,24.70241737,ΔΗΜΟΣ ΚΕΡΑΜΩΤΗΣ,13,13,64011 ΚΕΡΑΜΩΤΗ
576,,41.28835297,23.02502632,ΔΗΜΟΣ ΚΕΡΚΙΝΗΣ,13,45,"ΡΟΔΟΠΟΛΗ ΣΕΡΡΩΝ, 62055"
577,,38.79898453,23.47908211,ΔΗΜΟΣ ΚΗΡΕΩΣ,13,6,"Δ.Δ. ΜΑΝΤΟΥΔΙΟΥ, ΑΓ. ΙΩΑΝΝΟΥ ΘΕΟΛΟΓΟΥ 34004"
578,,39.48466873,22.47682953,ΔΗΜΟΣ ΚΙΛΕΛΕΡ,13,9,ΚΙΛΕΛΕΡ ΛΑΡΙΣΑΣ 41500
579,,40.99501419,22.88084793,ΔΗΜΟΣ ΚΙΛΚΙΣ,13,14,Γ. ΚΑΠΕΤΑ 17 61100 ΚΙΛΚΙΣ
580,,39.69272232,21.51952934,ΔΗΜΟΣ ΚΛΕΙΝΟΒΟΥ,13,16,ΑΜΠΕΛΙΑ ΚΛΕΙΝΟΥ 42200
581,,40.55792236,21.45053101,ΔΗΜΟΣ ΚΛΕΙΣΟΥΡΑΣ,13,41,"ΚΛΕΙΣΟΥΡΑ, 52054, ΝΟΜΟΣ ΚΑΣΤΟΡΙΑΣ"
582,,40.30120468,21.7876358,ΔΗΜΟΣ ΚΟΖΑΝΗΣ,13,52,"ΠΛΑΤΕΙΑ ΝΙΚΗΣ 1, ΚΟΖΑΝΗ, 50100"
583,,39.54944611,21.58388901,ΔΗΜΟΣ ΚΟΖΙΑΚΑ,13,16,"ΠΡΙΝΟΣ ΤΡΙΚΑΛΩΝ , 42100, ΤΡΙΚΑΛΑ"
584,,39.6162796,22.25262833,ΔΗΜΟΣ ΚΟΙΛΑΔΑΣ,13,9,ΚΟΙΛΑΔΑ ΛΑΡΙΣΑΣ
585,,40.4791832,22.48298264,ΔΗΜΟΣ ΚΟΛΙΝΔΡΟΥ ΠΙΕΡΙΑΣ,13,36,ΚΟΛΙΝΔΡΟΣ ΠΙΕΡΙΑΣ
586,,41.11886978,25.40552711,ΔΗΜΟΣ ΚΟΜΟΤΗΝΗΣ,13,15,"ΠΛΑΤΕΙΑ ΒΙΖΥΗΝΟΥ 1, 69100, ΚΟΜΟΤΗΝΗ"
587,,38.55738068,23.97743607,ΔΗΜΟΣ ΚΟΝΙΣΤΡΩΝ,13,6,"ΛΙΑΝΟΠΟΥΛΟΥ - ΚΟΝΙΣΤΡΕΣ ΕΥΒΟΙΑΣ, 34016"
588,,40.31687546,22.58942986,ΔΗΜΟΣ ΚΟΡΙΝΟΥ,13,36,"ΤΑΣΙΑΚΟΥ 2, 60062 ΚΟΡΙΝΟΣ ΠΙΕΡΙΑΣ"
589,,40.98927307,24.0194912,ΔΗΜΟΣ ΚΟΡΜΙΣΤΑΣ,13,45,"ΝΕΑ ΜΠΑΦΡΑ ΣΕΡΡΩΝ, 62047"
590,,38.39213943,22.933815,ΔΗΜΟΣ ΚΟΡΩΝΕΙΑΣ,13,8,"ΕΘΝΙΚΗΣ ΑΝΑΓΕΝΝΗΣΗΣ 11, 32007, ΑΓΙΟΣ ΓΕΩΡΓΙΟΣ"
591,,40.08358765,21.42619705,ΔΗΜΟΣ ΚΟΣΜΑ ΤΟΥ ΑΙΤΩΛΟΥ,13,10,"ΔΗΜΟΣ ΚΟΣΜΑ ΑΙΤΩΛΟΥ, ΠΛΑΤΕΙΑ ΜΕΓΑΡΟΥ ΓΡΕΒΕΝΩΝ51100"
592,,39.61114883,22.41626549,ΔΗΜΟΣ ΚΡΑΝΝΩΝΟΣ,13,9,ΑΓ. ΑΝΑΡΓΥΡΟΙ 41500-ΛΑΡΙΣΑ
593,,41.03940964,22.9560318,ΔΗΜΟΣ ΚΡΟΥΣΣΩΝ,13,14,"Ν. ΚΙΛΚΙΣ, ΤΕΡΠΥΛΛΟΣ, 61100"
594,,40.68852234,22.30245972,ΔΗΜΟΣ ΚΡΥΑΣ ΒΡΥΣΗΣ,13,5,"ΒΑΣΙΛΕΩΣ ΠΑΥΛΟΥ 65, 58300, ΚΡΥΑ ΒΡΥΣΗ"
595,,38.98815536,21.82035255,ΔΗΜΟΣ ΚΤΗΜΕΝΙΩΝ,13,29,ΑΓΙΑ ΤΡΙΑΔΑ ΕΥΡΥΤΑΝΙΑΣ 36080 ΦΟΥΡΝΑ
596,,38.63393021,24.10373116,ΔΗΜΟΣ ΚΥΜΗΣ,13,6,ΒΑΧΛΑ 14 34003 ΚΥΜΗ
597,,41.57977295,26.54045868,ΔΗΜΟΣ ΚΥΠΡΙΝΟΥ,13,25,"ΕΛ. ΒΕΝΙΖΕΛΟΥ 50, 68006, ΚΥΠΡΙΝΟΣ Ν. ΕΒΡΟΥ"
598,,40.79310226,22.41149521,ΔΗΜΟΣ ΚΥΡΡΟΥ,13,5,"Ν. ΜΥΛΟΤΟΠΟΣ 58100, ΓΙΑΝΝΙΤΣΑ"
599,,39.68333435,22.63291359,ΔΗΜΟΣ ΛΑΚΕΡΕΙΑΣ,13,9,"ΔΗΜΗΤΡΑ ΑΓΙΑΣ ΛΑΡΙΣΑΣ, 40003"
600,,38.90174103,22.43225861,ΔΗΜΟΣ ΛΑΜΙΑΣ,13,39,"ΠΛΑΤΕΙΑ ΕΛΕΥΘΕΡΙΑΣ 8, 35100, ΛΑΜΙΑ"
601,,39.60015869,22.42020416,ΔΗΜΟΣ ΛΑΡΙΣΑΣ,13,9,"Ι. ΔΡΑΓΟΥΜΗ 1, 41222"
602,,38.42842865,22.6655407,ΔΗΜΟΣ ΛΙΒΑΔΕΙΑΣ,13,8,"ΠΛΑΤΕΙΑ ΕΘΝΙΚΗΣ ΑΝΤΙΣΤΑΣΕΩΣ, 32100"
603,,38.89989853,22.43334961,ΔΗΜΟΣ ΛΕΙΑΝΟΚΛΑΔΙΟΥ,13,39,ΛΕΙΑΝΟΚΛΑΔΙ ΦΘΙΩΤΙΔΑΣ 35100 ΛΑΜΙΑ
604,,41.08831024,23.54281425,ΔΗΜΟΣ ΛΕΥΚΩΝΑ,13,45,ΗΛΙΑ ΛΑΥΡΕΝΤΙΔΗ - ΛΕΥΚΩΝΑΣ 62121 ΣΕΡΡΕΣ
605,,40.08601379,22.11917496,ΔΗΜΟΣ ΛΙΒΑΔΙΟΥ,13,9,ΛΙΒΑΔΙ ΕΛΑΣΣΟΝΑΣ Ν. ΛΑΡΙΣΑΣ 40002
606,,38.52574158,22.20331383,ΔΗΜΟΣ ΛΙΔΟΡΙΚΙΟΥ,13,34,ΔΗΜΟΣ ΛΙΔΩΡΙΚΙΟΥ (33053 Λιδωρίκι )
607,,40.12587357,22.50066948,ΔΗΜΟΣ ΛΙΤΟΧΩΡΟΥ,13,36,"ΑΓ. ΝΙΚΟΛΑΟΥ 15, 60200 ΛΙΤΟΧΩΡΟ"
608,,39.15474319,26.49019814,ΔΗΜΟΣ ΛΟΥΤΡΟΠΟΛΕΩΣ ΘΕΡΜΗΣ,13,26,"Λ. ΘΕΡΜΗΣ, 81100, ΛΕΣΒΟΣ"
609,,40.75405121,22.27889061,ΔΗΜΟΣ Μ. ΑΛΕΞΑΝΔΡΟΥ,13,5,"ΔΗΜΟΣ ΜΕΓ. ΑΛΕΞΑΝΔΡΟΥ, ΓΑΛΑΤΑΔΕΣ, ΔΗΜΑΡΧΕΙΟ, 58300"
610,,40.35004807,22.20956612,ΔΗΜΟΣ ΜΑΚΕΔΟΝΙΔΟΣ,13,11,"ΡΙΖΩΜΑΤΑ ΗΜΑΘΙΑΣ, 59100"
611,,38.9415741,22.11578941,ΔΗΜΟΣ ΜΑΚΡΑΚΩΜΗΣ,13,39,"ΠΛΑΤΕΙΑ ΕΘΝΙΚΗΣ ΑΝΤΙΣΤΑΣΕΩΣ 5, ΜΑΚΡΑΚΩΜΗ"
612,,39.72549057,22.52293205,ΔΗΜΟΣ ΜΑΚΡΥΧΩΡΙΟΥ,13,9,40006 ΣΥΚΟΥΡΙΟ
613,,39.7965889,21.32902718,ΔΗΜΟΣ ΜΑΛΑΚΑΣΙΟΥ,13,16,ΠΑΝΑΓΙΑ ΚΑΛΑΜΠΑΚΑΣ 42200
614,,38.62325668,23.23260498,ΔΗΜΟΣ ΜΑΛΕΣΙΝΗΣ,13,39,"ΑΓΙΟΥ ΚΩΝ/ΝΟΥ 46, 35001 ΜΑΛΕΣΙΝΑ ΦΘΙΩΤΙΔΑΣ"
615,,39.31113434,26.33666039,ΔΗΜΟΣ ΜΑΝΤΑΜΑΔΟΥ,13,26,ΜΑΝΤΑΜΑΔΟΣ 81104 ΛΕΣΒΟΣ
616,,37.7228508,26.61995888,ΔΗΜΟΣ ΜΑΡΑΘΟΚΑΜΠΟΥ,13,30,ΜΑΡΑΘΟΚΑΜΠΟΣ ΣΑΜΟΥ 83102
617,,38.07691956,24.35791397,ΔΗΜΟΣ ΜΑΡΜΑΡΙΟΥ,13,6,"ΓΡΗΓΟΡΙΟΥ ΑΥΞΕΝΤΙΠΥ, ΜΑΡΜΑΡΙ 34013"
618,,40.97439957,25.4214344,ΔΗΜΟΣ ΜΑΡΩΝΕΙΑΣ,13,15,"ΚΕΝΤΡΙΚΗ ΠΛΑΤΕΙΑ ΞΥΛΑΓΑΝΗΣ, 69400 ΞΥΛΑΓΑΝΗ"
619,,38.22711563,25.99886322,ΔΗΜΟΣ ΜΑΣΤΙΧΟΧΩΡΙΩΝ,13,19,ΠΥΡΓΙ ΧΙΟΣ 82102
620,,39.4989357,21.78382301,ΔΗΜΟΣ ΜΕΓ. ΚΑΛΥΒΙΩΝ,13,16,"ΜΕΓΑΛΑ ΚΑΛΥΒΙΑ, 42030"
621,,40.41539001,22.60308647,ΔΗΜΟΣ ΜΕΘΩΝΗΣ,13,36,"ΦΕΛΩΝΗ 5, ΜΑΚΡΥΓΙΑΛΛΟΣ ΠΙΕΡΙΑΣ 60066"
622,,39.74003983,22.80874443,ΔΗΜΟΣ ΜΕΛΙΒΟΙΑΣ,13,9,"ΣΩΤΗΡΙΤΣΑ, 400 03, ΛΑΡΙΣΗΣ"
623,,40.52023315,22.39586258,ΔΗΜΟΣ ΜΕΛΙΚΗΣ,13,11,"ΠΛΑΤΕΙΑ ΔΗΜΑΡΧΕΙΟΥ ΜΕΛΙΚΗΣ, 59031"
624,,40.82687378,21.54086876,ΔΗΜΟΣ ΜΕΛΙΤΗΣ,13,23,"ΔΗΜΟΣ ΜΕΛΙΤΗΣ, ΟΙΚΙΣΜΟΣ ΑΓ. ΑΥΑΝΑΣΙΟΥ, 53100 ΝΕΟΧΩΡΑΚΙ"
625,,39.19457626,22.03657722,ΔΗΜΟΣ ΜΕΝΕΛΑΙΔΟΣ,13,33,"ΔΗΜΟΣ ΚΑΡΔΙΤΣΑΣ, ΚΕΔΡΟΣ ΚΑΡΔΙΤΣΑΣ 43300, ΤΑΧΥΔΡ. ΓΡΑΦΕΙΟ ΣΟΦΑΔΩΝ ΚΑΡΔΙΤΣΑΣ"
626,,40.76753616,22.15369415,ΔΗΜΟΣ ΜΕΝΗΙΔΟΣ,13,5,ΔΗΜΑΡΧΕΙΟ ΚΑΛΗ 58500 ΣΚΥΔΡΑ
627,,38.57668304,23.64420891,ΔΗΜΟΣ ΜΕΣΣΑΠΙΩΝ,13,6,ΦΙΛΕΛΛΗΝΩΝ 19 34400 ΨΑΧΝΑ ΕΥΒΟΙΑΣ
628,,38.75795364,21.64222336,ΔΗΜΟΣ ΠΡΟΥΣΣΟΥ,13,29,36074 ΠΡΟΥΣΟΣ
629,,41.41891479,26.22417068,ΔΗΜΟΣ ΜΕΤΑΞΑΔΩΝ,13,25,"ΔΗΜΟΣ ΜΕΤΑΞΑΔΩΝ, 68010, ΜΕΤΑΞΑΔΕΣ ΕΒΡΟΥ"
630,,39.3602066,26.24227333,ΔΗΜΟΣ ΜΗΘΥΜΝΑΣ,13,26,"ΜΗΘΥΜΝΑ ΛΕΣΒΟΥ, 81108"
631,,39.30406189,23.13244438,ΔΗΜΟΣ ΜΗΛΕΩΝ,13,37,"ΜΗΛΙΕΣ ΒΟΛΟΥ, 37010"
632,,39.36517715,21.92194748,ΔΗΜΟΣ ΜΗΤΡΟΠΟΛΗΣ,13,33,"ΓΕΩΡΓΙΟΥ ΚΑΡΑΙΣΚΑΚΗ 1, ΜΗΤΡΟΠΟΛΗ ΚΑΡΔΙΤΣΑ , 43100"
633,,40.24048233,23.28500938,ΔΗΜΟΣ ΜΟΥΔΑΝΙΩΝ,13,20,"ΜΕΓΑΛΟΥ ΑΛΕΞΑΝΔΡΟΥ 26, 63200, ΜΟΥΔΑΝΙΑ"
634,,39.87465286,25.27176857,ΔΗΜΟΣ ΜΟΥΔΡΟΥ,13,26,ΜΟΥΔΡΟΣ 81401 ΛΗΜΝΟΣ
635,,39.42784119,21.66371918,ΔΗΜΟΣ ΜΟΥΖΑΚΙΟΥ,13,33,"ΚΑΡΑ'Ι'ΣΚΑΚΗ 1, ΜΟΥΖΑΚΙ, 43060"
636,,39.38801575,23.17295837,ΔΗΜΟΣ ΜΟΥΡΕΣΙΟΥ,13,37,37012 ΤΣΑΓΚΑΡΑΔΑ
637,,40.48901749,21.55758095,ΔΗΜΟΣ ΜΟΥΡΙΚΙΟΥ,13,52,50005 ΕΜΠΟΡΙΟ
638,,41.25458908,22.79625511,ΔΗΜΟΣ ΜΟΥΡΙΩΝ,13,14,"ΜΟΥΡΙΕΣ ΚΙΛΚΙΣ, 61003"
639,,41.23009491,24.87232018,ΔΗΜΟΣ ΜΥΚΗΣ,13,7,ΣΜΙΝΘΗ ΞΑΝΘΗΣ
640,,39.87443924,25.0638504,ΔΗΜΟΣ ΜΥΡΙΝΑΙΩΝ,13,26,ΠΛΑΤΕΙΑ ΗΛΙΑ ΗΛΙΟΥ 81400 ΜΥΡΙΝΑ ΛΗΜΝΟΣ
641,,39.1015625,26.55531693,ΔΗΜΟΣ ΜΥΤΙΛΗΝΗΣ,13,26,"ΕΛΕΥΘΕΡΙΟΥ ΒΕΝΙΖΕΛΟΥ 13-17, 81100, ΜΥΤΙΛΗΝΗ"
642,,38.80799484,22.64434052,ΔΗΜΟΣ ΜΩΛΟΥ,13,39,"Ε. ΑΝΤΙΣΤΑΣΗΣ 5, 35009 ΜΩΛΟΣ"
643,,39.27687073,22.82026291,ΔΗΜΟΣ Ν. ΑΓΧΙΑΛΟΥ,13,37,"ΕΛΕΥΘΕΡΙΑΣ 23, 37400 ΝΕΑ ΑΓΧΙΑΛΟΣ"
644,,38.51725006,23.63936996,ΔΗΜΟΣ Ν. ΑΡΤΑΚΗΣ,13,6,"ΚΩΝΣΤΑΝΤΙΝΟΥΠΟΛΕΩΣ, 80, ΝΕΑ ΑΡΤΑΚΗ ΕΥΒΟΙΑΣ, 34600"
645,,39.91984177,25.14148331,ΔΗΜΟΣ Ν. ΚΟΥΤΑΛΗΣ,13,26,"ΚΟΝΤΙΑΣ, 81400, ΛΗΜΝΟΣ"
646,,41.11886978,25.40552711,ΔΗΜΟΣ Ν. ΣΙΔΗΡΟΧΩΡΙΟΥ,13,15,"ΝΕΟ ΣΙΔΗΡΟΧΩΡΙ, 69100, ΚΟΜΟΤΗΝΗ"
647,,40.6306076,22.06955147,ΔΗΜΟΣ ΝΑΟΥΣΑΣ,13,11,"ΠΛ. ΔΗΜΑΡΧΙΑΣ 30, 59200, ΝΑΟΥΣΑ"
648,,39.29395676,22.38454056,ΔΗΜΟΣ ΝΑΡΘΑΚΙΟΥ,13,9,ΝΑΡΘΑΚΙΟ 40300 ΦΑΡΣΑΛΑ
649,,40.65343857,22.9391346,ΔΗΜΟΣ ΝΕΑΠΟΛΗΣ,13,52,ΔΗΜ. ΚΑΤΑΣΤΗΜΑ ΝΟΣΟΚΟΜΕΙΟΥ 1 ΝΕΑΠΟΛΗΣ
650,,40.98628235,23.81088066,ΔΗΜΟΣ Ν. ΖΙΧΝΗΣ,13,45,"ΝΕΑ ΖΙΧΝΗ, 62042"
651,,39.37015152,22.93612862,ΔΗΜΟΣ Ν. ΙΩΝΙΑΣ,13,37,"ΛΕΩΦΟΡΟΣ ΕΙΡΗΝΗΣ ΤΕΡΜΑ, Ν.ΙΩΝΙΑ ΜΑΓΝΗΣΙΑΣ, 38446"
652,,39.30564499,21.69411278,ΔΗΜΟΣ ΝΕΒΡΟΠΟΛΗΣ ΑΓΡΑΦΩΝ,13,33,"ΠΕΖΟΥΛΑ ΚΑΡΔΙΤΣΑΣ, 43100"
653,,40.41725922,21.05714035,ΔΗΜΟΣ ΝΕΣΤΟΡΙΟΥ,13,41,ΝΕΣΤΟΡΙΟ 52051
654,,38.85900116,23.39999962,ΔΗΜΟΣ ΝΗΛΕΩΣ,13,6,ΑΓΙΑ ΑΝΝΑ ΕΥΒΟΙΑΣ 34010
655,,40.90745544,23.49938393,ΔΗΜΟΣ ΝΙΓΡΙΤΑΣ,13,45,"ΗΡΩΩΝ 2 ΝΙΓΡΙΤΑ, 62200"
657,,35.36893463,24.47282982,ΔΗΜΟΣ ΝΙΚΗΦΟΡΟΥ,13,2,"ΔΗΜΑΡΧΕΙΟ ΝΙΚΗΦΟΡΟΥ, ΝΙΚΗΦΟΡΟΣ 66100"
658,,41.14257431,24.88752937,ΔΗΜΟΣ ΞΑΝΘΗΣ,13,7,"ΜΑΥΡΟΜΙΧΑΛΗ 6, 67100, ΞΑΝΘΗ"
659,,39.12754822,22.30306053,ΔΗΜΟΣ ΞΥΝΙΑΔΟΣ,13,39,"ΟΜΒΡΙΛΚΗ ΦΘΙΩΤΙΔΑΣ, 35010, ΔΟΜΟΚΟΣ"
660,,38.51504135,26.22260094,ΔΗΜΟΣ ΟΙΝΟΥΣΣΩΝ,13,19,ΟΙΝΟΥΣΣΑΙ ΧΙΟΥ 82101
661,,38.29999924,23.63333321,ΔΗΜΟΣ ΟΙΝΟΦΥΤΩΝ,13,8,"ΚΑΠΕΤΑΝ ΙΩΑΝΝΗ ΛΙΑΠΗ 35, ΟΙΝΟΦΥΤΑ ΒΟΙΩΤΙΑΣ, 32011"
662,,39.60672379,21.98025703,ΔΗΜΟΣ ΟΙΧΑΛΙΑΣ,13,16,ΔΗΜΟΣ ΟΙΧΑΛΙΑΣ
663,,39.97750092,22.18638802,ΔΗΜΟΣ ΟΛΥΜΠΟΥ,13,9,ΚΑΛΛΙΘΕΑ ΕΛΑΣΣΟΝΑΣ 40200 ΚΑΛΛΙΘΕΑ
664,,38.42509842,26.07685089,ΔΗΜΟΣ ΟΜΗΡΟΥΠΟΛΗΣ,13,19,ΠΑΝΑΓΙΑ ΜΟΥΤΣΑΙΝΑ - ΒΡΟΝΤΑΔΟΣ 82200 ΧΙΟΣ
665,,38.56759262,23.21711349,ΔΗΜΟΣ ΟΠΟΥΝΤΙΩΝ,13,39,"ΠΑΜΜΕΓΙΣΤΩΝ ΤΑΞΙΑΡΧΩΝ, 35005 ΜΑΡΤΙΝΟ"
666,,41.15652466,24.63677979,ΔΗΜΟΣ ΟΡΕΙΝΟΥ,13,13,ΔΗΜΟΣ ΟΡΕΙΝΟΥ (Λεκάνη 64009 Κεχρόκαμπος )
667,,41.51286316,26.49019814,ΔΗΜΟΣ ΟΡΕΣΤΙΑΔΑΣ,13,25,ΒΑΣ. ΚΩΝ/ΝΟΥ 9-11 68200 ΟΡΕΣΤΙΑΔΑ
668,,40.44676208,21.26378059,ΔΗΜΟΣ ΑΡΓΟΥΣ ΟΡΕΣΤΙΚΟΥ (ΟΡΕΣΤΙΔΟΣ),13,41,"ΔΙΟΙΚΗΤΗΡΙΟΥ 39, 52200 ΑΡΓΟΣ ΟΡΕΣΤΙΚΟ"
669,,40.26776123,23.53713608,ΔΗΜΟΣ ΟΡΜΥΛΙΑΣ,13,20,"ΔΗΜΟΣ ΟΡΜΥΛΙΑΣ, 63071, ΧΑΛΚΙΔΙΚΗ"
670,,40.76222229,23.929142,ΔΗΜΟΣ ΟΡΦΑΝΟΥ,13,13,"ΓΑΛΗΨΟΣ ΚΑΒΑΛΑΣ, 640 08"
671,,41.26944733,26.38385582,ΔΗΜΟΣ ΟΡΦΕΑ,13,25,"ΚΩΝΣΤΑΝΤΙΝΟΥΠΟΛΕΩΣ 75, 68004 ΛΑΒΑΡΑ Ν. ΕΒΡΟΥ"
672,,38.51089096,23.07268143,ΔΗΜΟΣ ΟΡΧΟΜΕΝΟΥ,13,8,"28ης ΟΚΤΩΒΡΙΟΥ 50,  32300, ΟΡΧΟΜΕΝΟΣ"
1080,,39.08630371,20.92641258,ΔΗΜΟΣ ΑΜΒΡΑΚΙΚΟΥ,13,31,ΑΝΕΖΑ ΑΡΤΑΣ 47100
673,,40.94887161,24.14156723,ΔΗΜΟΣ ΠΑΓΓΑΙΟΥ,13,13,64001 ΝΙΚΗΣΙΑΝΗ
674,,39.60771942,21.8156929,ΔΗΜΟΣ ΠΑΛΗΟΚΑΣΤΡΟΥ,13,16,ΠΑΛΑΙΟΠΥΡΓΟΣ 42100
675,,38.98389053,23.6147213,ΔΗΜΟΣ ΠΑΛΛΗΝΗΣ,13,20,"ΠΕΥΚΟΧΩΡΙ ΧΑΛΚΙΔΙΚΗΣ, 63085"
676,,40.44722748,23.6818161,ΔΗΜΟΣ ΠΑΝΑΓΙΑΣ,13,20,"ΜΕΓΑΛΗ ΠΑΝΑΓΙΑ ΧΑΛΚΙΔΙΚΗΣ, 63076, ΧΑΛΚΙΔΙΚΗ"
677,,39.6323204,21.7015419,ΔΗΜΟΣ ΠΑΡΑΛΗΘΑΙΩΝ,13,16,ΡΙΖΩΜΑ ΤΡΙΚΑΛΩΝ 42100 ΘΕΣΣΑΛΙΑ
678,,40.2743187,22.5784111,ΔΗΜΟΣ ΠΑΡΑΛΙΑΣ,13,36,ΑΓ. ΝΙΚΟΛΑΟΥ 16 60100 ΚΑΛΛΙΘΕΑ ΠΙΕΡΙΑΣ
679,,41.15044022,24.15225983,ΔΗΜΟΣ ΠΑΡΑΝΕΣΤΙΟΥ,13,2,"ΔΗΜΟΣ ΠΑΡΝΕΣΤΙΟΥ, ΔΡΑΜΑ"
680,,38.60854721,22.55708694,ΔΗΜΟΣ ΠΑΡΝΑΣΣΟΥ,13,34,ΠΟΛΥΔΡΟΣΟΣ 33051
681,,38.9487648,22.83907318,ΔΗΜΟΣ ΠΕΛΑΣΓΙΑΣ,13,39,"ΠΕΛΑΣΓΙΑ ΦΘΙΩΤΙΔΑΣ, 35013"
682,,39.56351089,21.89094734,ΔΗΜΟΣ ΠΕΛΙΝΝΑΙΩΝ,13,16,ΤΑΞΙΑΡΧΕΣ ΤΡΙΚΑΛΩΝ
683,,40.75317383,21.46594429,ΔΗΜΟΣ ΠΕΡΑΣΜΑΤΟΣ,13,23,"ΠΕΡΑΣΜΑ 53100, ΦΛΩΡΙΝΑ"
684,,39.28059006,26.20640755,ΔΗΜΟΣ ΠΕΤΡΑΣ,13,26,"ΔΗΜΟΣ ΠΕΤΡΑΣ, ΛΕΣΒΟΣ 81109"
685,,40.27148056,22.50866127,ΔΗΜΟΣ ΠΕΤΡΑΣ,13,36,"Κ. ΜΗΛΙΑ ΠΙΕΡΙΑΣ, 60100 ΚΑΤΕΡΙΝΗ"
686,,41.28608322,23.21562386,ΔΗΜΟΣ ΠΕΤΡΙΤΣΙΟΥ,13,45,"27ης ΙΟΥΝΙΟΥ 1913-1, ΤΚ 62043 ΣΕΡΡΕΣ"
687,,39.51246643,21.7022438,ΔΗΜΟΣ ΠΙΑΛΕΙΩΝ,13,16,"ΦΗΚΗ ΤΡΙΚΑΛΩΝ, 42100 ΤΡΙΚΑΛΑ"
688,,39.22584534,20.16229439,Δ.Ο.Υ. ΠΑΞΩΝ,26,38,ΓΑΙΟΣ ΠΑΞΩΝ
689,,40.8628006,24.11272621,ΔΗΜΟΣ ΠΙΕΡΕΩΝ,13,13,"ΔΗΜΟΣ ΠΙΕΡΕΩΝ, ΝΟΜΟΣ ΚΑΒΑΛΑΣ, 64008, ΜΟΥΣΘΕΝΗ"
690,,40.28878403,22.28442574,ΔΗΜΟΣ ΠΙΕΡΙΩΝ,13,36,"Μ. ΑΛΕΞΑΝΔΡΟΥ 24, ΡΗΤΙΝΗ ΠΙΕΡΙΑΣ 60100"
691,,40.84000015,22.7756958,ΔΗΜΟΣ ΠΙΚΡΟΛΙΜΝΗΣ,13,14,"ΜΙΚΡΟΚΑΜΠΟΣ 57011, ΓΕΦΥΡΑ"
692,,39.36555862,21.92668915,ΔΗΜΟΣ ΠΛΑΣΤΗΡΑ,13,33,"ΜΟΡΦΟΒΟΥΝΙ, ΔΗΜΟΣ ΠΛΑΣΤΗΡΑ, ΚΑΡΔΙΤΣΑ"
693,,38.24333191,23.21750069,ΔΗΜΟΣ ΠΛΑΤΑΙΩΝ,13,8,"ΚΑΠΑΡΕΛΛΙ ΒΟΙΩΤΙΑΣ, 32200"
694,,40.57190323,22.59602737,ΔΗΜΟΣ ΠΛΑΤΕΟΣ,13,11,"ΕΛ. ΒΕΝΙΖΕΛΟΥ 2, 59032 ΠΛΑΤΥ ΗΜΑΘΙΑΣ"
695,,39.61996078,22.53642845,ΔΗΜΟΣ ΠΛΑΤΥΚΑΜΠΟΥ,13,9,40009 ΠΛΑΤΥΚΑΜΠΟΣ
696,,38.97503281,26.36850357,ΔΗΜΟΣ ΠΛΩΜΑΡΙΟΥ,13,26,"ΠΛΩΜΑΡΙ, 81200, ΛΕΣΒΟΣ"
697,,40.38186646,23.44071579,ΔΗΜΟΣ ΠΟΛΥΓΥΡΟΥ,13,20,ΠΟΛΥΤΕΧΝΕΙΟΥ 5Ο 63100
698,,39.34083176,22.42694473,ΔΗΜΟΣ ΠΟΛΥΔΑΜΑΝΤΑ,13,9,ΒΑΜΒΑΚΟΥ ΛΑΡΙΣΑΣ 40300
699,,40.99788284,22.57089996,ΔΗΜΟΣ ΠΟΛΥΚΑΣΤΡΟΥ,13,14,"Μ. ΑΛΕΞΑΝΔΡΟΥ 75, 61200 ΠΟΛΥΚΑΣΤΡΟ"
700,,39.39050293,22.99788284,ΔΗΜΟΣ ΠΟΡΤΑΡΙΑΣ,13,37,"ΤΣΑΞΙΡΗ 1, 37011"
701,,38.89903259,21.73761749,ΔΗΜΟΣ ΠΟΤΑΜΙΑΣ,13,29,ΜΕΓΑΛΟ ΧΩΡΙΟ ΕΥΡΥΤΑΝΙΑΣ 36100
702,,39.63209915,22.41993523,ΔΗΜΟΣ ΠΟΤΑΜΙΑΣ,13,9,ΒΛΑΧΟΓΙΑΝΝΙ ΛΑΡΙΣΑΣ
703,,40.78821564,21.13602257,ΔΗΜΟΣ ΠΡΕΣΠΩΝ,13,23,"ΛΑΙΜΟΣ ΠΡΕΣΠΩΝ, ΦΛΩΡΙΝΑΣ, 53077, ΑΓ. ΓΕΡΜΑΝΟΣ"
704,,41.19387817,23.90606308,ΔΗΜΟΣ ΠΡΟΣΟΤΣΑΝΗΣ,13,2,"ΧΡ. ΣΑΚΑΡΗ 15, 66200 ΠΡΟΣΟΤΣΑΝΗ"
705,,40.95000076,24,ΔΗΜΟΣ ΠΡΩΤΗΣ,13,45,62047 ΠΡΩΤΗ ΣΕΡΡΩΝ
706,,39.05273819,22.95328712,ΔΗΜΟΣ ΠΤΕΛΕΟΥ,13,37,ΠΤΕΛΕΟΣ ΜΑΓΝΗΣΙΑΣ
707,,40.51147842,21.6792469,ΔΗΜΟΣ ΠΤΟΛΕΜΑΙΔΑΣ,13,52,"25ης ΜΑΡΤΙΟΥ 15, ΠΤΟΛΕΜΑ'Ι'ΔΑ 50200"
708,,40.3777771,22.57416725,ΔΗΜΟΣ ΠΥΔΝΑΣ,13,36,"ΚΙΤΡΟΣ ΠΙΕΡΙΑΣ, 60064, ΚΙΤΡΟΣ"
1288,,38.52241516,21.77338982,ΔΗΜΟΣ ΠΥΛΛΗΝΗΣ,13,42,ΣΙΜΟΥ 30026
709,,37.69132996,26.94113541,ΔΗΜΟΣ ΠΥΘΑΓΟΡΕΙΟΥ,13,30,ΔΗΜΟΤΙΚΟ ΚΤΙΡΙΟ ΧΩΡΑΣ  (4km ΠΕΡΙΠΟΥ ΑΠΌ ΤΟ ΔΗΜΑΡΧΕΙΟ ΠΟΥ ΒΡΙΣΚΕΤΑΙ ΣΤΟ ΠΥΘΑΓΟΡΕΙΟ)
710,,39.45867538,21.62044525,ΔΗΜΟΣ ΠΥΛΗΣ,13,16,"ΗΡΩΩΝ 1940, 1 ΠΥΛΗ ΤΡΙΚΑΛΩΝ 42032"
711,,39.45867538,21.62044525,ΔΗΜΟΣ ΠΥΝΔΕΩΝ,13,16,"ΣΤΟΥΡΝΑΡΑΙΚΑ, 42032, ΠΥΛΗ"
712,,37.51694489,26.02000046,ΔΗΜΟΣ ΡΑΧΩΝ,13,30,"ΡΑΧΕΣ ΙΚΑΡΙΑΣ, 83301"
713,,39.0643959,21.9774456,ΔΗΜΟΣ ΡΕΝΤΙΝΗΣ,13,33,"ΡΕΝΤΙΝΑ ΘΕΣΣΑΛΙΑΣ, 43068"
714,,40.92198181,23.97289848,ΔΗΜΟΣ ΡΟΔΟΛΙΒΟYΣ,13,45,"ΚΩΝ/ΝΟΥ ΚΙΟΡΠΕ 22, 62041 ΡΟΔΟΛΙΒΟΣ"
715,,40.44768524,25.59179115,ΔΗΜΟΣ ΣΑΜΟΘΡΑΚΗΣ,13,25,68002 ΣΑΜΟΘΡΑΚΗ
716,,41.02344513,25.69655991,ΔΗΜΟΣ ΣΑΠΩΝ,13,15,"ΠΑΠΑΔΗΜΑ 2, 69100 ΣΑΠΕΣ"
717,,40.0672226,22.05186272,ΔΗΜΟΣ ΣΑΡΑΝΤΑΠΟΡΟΥ,13,9,"ΣΑΡΑΝΤΑΠΟΡΟ ΛΑΡΙΣΑΣ, 40200"
718,,39.48800659,21.90370369,ΔΗΜΟΣ ΣΕΛΛΑΝΩΝ,13,33,"ΠΡΟΑΣΤΙΟ, 43070"
719,,40.18492126,21.99954414,ΔΗΜΟΣ ΣΕΡΒΙΩΝ,13,52,ΠΛ. ΕΛΕΥΘΕΡΙΑΣ ΣΕΡΒΙΑ 50500
720,,41.09063721,23.54978943,ΔΗΜΟΣ ΣΕΡΡΩΝ,13,45,"ΜΕΡΑΡΧΙΑΣ 1, ΣΕΡΡΕΣ 62122"
721,,39.17790604,23.24618721,ΔΗΜΟΣ ΣΗΠΙΑΔΟΣ,13,37,ΛΑΥΚΟ ΜΑΓΝΗΣΙΑΣ (ΝΟΤΙΟ ΠΗΛΙΟ)
722,,39.73884964,22.28819084,ΔΗΜΟΣ ΤΥΡΝΑΒΟΥ,13,9,ΣΤΑΥΡΟΥ ΚΑΡΑΣΣΟΥ 1 ΤΥΡΝΑΒΟΣ
723,,40.26260376,21.54743767,ΔΗΜΟΣ ΣΙΑΤΙΣΤΑΣ,13,52,"ΠΛΑΤΕΙΑ ΤΣΙΤΟΠΟΥΛΟΥ 5, 50300 ΣΙΑΤΙΣΤΑ"
724,,41.23897552,23.39483643,ΔΗΜΟΣ ΣΙΔΗΡΟΚΑΣΤΡΟΥ,13,45,"ΒΕΝΙΖΕΛΟΥ 34, ΣΙΔΗΡΟΚΑΣΤΡΟ  ΣΕΡΡΩΝ, 62300"
725,,40.22379303,23.66770554,ΔΗΜΟΣ ΣΙΘΩΝΙΑΣ,13,20,"ΝΙΚΗΤΗ ΧΑΛΚΙΔΙΚΗΣ, 63088"
726,,39.1625824,23.4853344,ΔΗΜΟΣ ΣΚΙΑΘΟΥ,13,37,"ΝΙΚΟΤΣΑΡΑ 12, ΣΚΙΑΘΟΣ"
728,,41.11725998,23.39396286,ΔΗΜΟΣ ΣΚΟΤΟΥΣΣΗΣ,13,45,"ΣΚΟΤΟΥΣΣΑ ΣΕΡΡΩΝ, 62100"
729,,41.04827881,23.52523232,ΔΗΜΟΣ ΣΚΟΥΤΑΡΕΩΣ,13,45,"ΣΚΟΥΤΑΡΙ ΣΕΡΡΩΝ, 62100, ΣΕΡΡΕΣ"
730,,40.76753616,22.15369415,ΔΗΜΟΣ ΣΚΥΔΡΑΣ,13,5,"ΕΘΝΙΚΗΣ ΑΝΤΙΣΤΑΣΗΣ 20, 58500 ΣΚΥΔΡΑ"
731,,38.81629562,24.59553528,ΔΗΜΟΣ ΣΚΥΡΟΥ,13,6,ΣΚΥΡΟΣ 34007
732,,39.10297012,22.89660645,ΔΗΜΟΣ ΣΟΥΡΠΗΣ,13,37,ΣΟΥΡΠΗ 37008
733,,41.1930275,26.30045891,ΔΗΜΟΣ ΣΟΥΦΛΙΟΥ,13,25,"ΒΑΣ. ΓΕΩΡΓΙΟΥ 180, 68400 ΣΟΥΦΛΙ"
734,,39.32360077,22.10869217,ΔΗΜΟΣ ΣΟΦΑΔΩΝ,13,33,"ΚΙΕΡΙΟΥ 49, ΣΟΦΑΔΕΣ 43300"
735,,38.9054985,22.12561035,ΔΗΜΟΣ ΣΠΕΡΧΕΙΑΔΑΣ,13,39,ΑΦΩΝ ΠΑΠΠΑ 2 350 03 ΣΠΕΡΧΕΙΑΔΑ
736,,40.39600372,23.8741684,ΔΗΜΟΣ ΣΤΑΓΙΡΩΝ - ΑΚΑΝΘΟΥ,13,20,"ΙΕΡΙΣΣΟΣ ΧΑΛΚΙΔΙΚΗΣ, 63075"
737,,40.67832947,22.95374107,ΔΗΜΟΣ ΣΤΑΥΡΟΥΠΟΛΗΣ,13,7,ΚΕΝΤΡΙΚΗ ΠΛΑΤΕΙΑ ΣΤΑΥΡΟΥΠΟΛΗΣ 67062
738,,41.04200745,23.31421661,ΔΗΜΟΣ ΣΤΡΥΜΟΝΙΚΟΥ,13,45,ΕΔΡΑ ΣΤΡΥΜΟΝΙΚΟ ΣΕΡΡΩΝ 62054
739,,41.02394104,23.61084366,ΔΗΜΟΣ ΣΤΡΥΜΩΝΑ,13,45,"ΝΕΟΣ ΣΚΟΠΟΣ ΣΕΡΡΩΝ, 62044"
740,,38.9156456,22.61894798,ΔΗΜΟΣ ΣΤΥΛΙΔΑΣ,13,39,"ΕΛ. ΒΕΝΙΖΕΛΟΥ ΚΑΙ ΘΕΡΜΟΠΥΛΩΝ, 35300"
741,,38.1774292,24.26282501,ΔΗΜΟΣ ΣΤΥΡΑΙΩΝ,13,6,ΣΤΥΡΑ 34015
742,,38.35521317,23.56893921,ΔΗΜΟΣ ΣΧΗΜΑΤΑΡΙΟΥ,13,8,"ΠΛΑΤΕΙΑ ΠΑΜΜΕΓΙΣΤΩΝ ΤΑΞΙΑΡΧΩΝ, 32009 ΣΧΗΜΑΤΑΡΙ"
743,,41.19537735,25.23634148,ΔΗΜΟΣ ΣΩΣΤΟΥ,13,15,ΣΩΣΤΗΣ 69200 ΙΑΣΜΟΣ
744,,38.40976334,24.03766823,ΔΗΜΟΣ ΤΑΜΙΝΑΙΩΝ,13,6,"Κ. ΜΠΑΚΟΛΑ 41, ΑΛΙΒΕΡΙ ΕΥΒΟΙΑΣ , 34500"
745,,38.35161972,23.48636627,ΔΗΜΟΣ ΤΑΝΑΓΡΑΣ,13,8,"ΑΡΜΑ ΒΟΙΩΤΙΑΣ, 32200"
746,,38.60797501,22.71468353,ΔΗΜΟΣ ΤΙΘΟΡΕΑΣ,13,39,ΚΗΦΙΣΟΥ 30 ΚΑΤΩ ΤΙΘΟΡΕΑ ΦΘΙΩΤΙΔΑΣ 35015
747,,38.36066437,22.22897339,ΔΗΜΟΣ ΤΟΛΟΦΩΝΟΣ,13,34,ΕΡΑΤΕΙΝΗ 33058
748,,40.98136902,24.8020668,ΔΗΜΟΣ ΤΟΠΕΙΡΟΥ,13,7,ΕΥΛΑΛΟ ΞΑΝΘΗΣ 67200
749,,40.03862,23.94253922,ΔΗΜΟΣ ΤΟΡΩΝΗΣ,13,20,"ΔΗΜΟΣ ΤΟΡΩΝΗΣ, ΣΥΚΙΑ ΧΑΛΚΙΔΙΚΗΣ, 63072"
750,,40.89547348,23.74775124,ΔΗΜΟΣ ΤΡΑΓΙΛΟΥ,13,45,"ΜΑΥΡΟΘΑΛΑΣΣΑ ΣΕΡΡΩΝ, 62049"
751,,40.84881592,25.8731842,ΔΗΜΟΣ ΤΡΑΙΑΝΟΥΠΟΛΗΣ,13,25,"ΑΝΘΕΙΑ ΤΡΑΙΑΝΟΥΛΟΠΛΗΣ, 68100 ΑΛΕΞΑΝΔΡΟΥΠΟΛΗ"
752,,40.26184082,23.22014999,ΔΗΜΟΣ ΤΡΙΓΛΙΑΣ,13,20,"Ν. ΤΡΙΓΛΙΑ , 63079 ΧΑΛΚΙΔΙΚΗΣ"
753,,41.68273544,26.25408554,ΔΗΜΟΣ ΤΡΙΓΩΝΟΥ,13,25,"ΔΗΜΑΡΧΕΙΟ ΔΗΜΟΥ ΤΡΙΓΩΝΟΥ, 68007, ΔΙΚΑΙΑ Ν. ΕΒΡΟΥ"
754,,39.55290985,21.76658058,ΔΗΜΟΣ ΤΡΙΚΚΑΙΩΝ,13,16,"ΑΣΚΛΗΠΙΟΥ 18, ΤΡΙΚΑΛΑ, 42100"
755,,39.77694321,21.79722214,ΔΗΜΟΣ ΤΥΜΦΑΙΩΝ,13,16,"ΚΟΝΙΣΚΟΣ 42200, ΤΡΙΚΑΛΑ"
756,,41.02748108,26.29785919,ΔΗΜΟΣ ΤΥΧΕΡΟΥ,13,25,"Ν. ΤΟΜΠΑΙΔΗ 27, 68003 ΤΥΧΕΡΟ ΕΒΡΟΥ"
757,,38.84481812,22.21455765,ΔΗΜΟΣ ΥΠΑΤΗΣ,13,39,35016 ΥΠΑΤΗ ΦΘΙΩΤΙΔΑΣ
758,,39.58755875,21.691082,ΔΗΜΟΣ ΦΑΛΩΡΕΙΑΣ,13,16,"ΚΕΦΑΛΟΒΡΥΣΟ ΤΡΙΚΑΛΩΝ, 42100"
759,,39.62521744,22.07148361,ΔΗΜΟΣ ΦΑΡΚΑΔΟΝΑΣ,13,16,"Γ. ΓΕΝΝΗΜΑΤΑ 1, ΦΑΡΚΑΔΟΝΑ, 42031"
760,,39.29354095,22.38318825,ΔΗΜΟΣ ΦΑΡΣΑΛΩΝ,13,9,"ΠΑΤΡΟΚΛΟΥ 3, 40300"
761,,39.38183975,22.74984932,ΔΗΜΟΣ ΦΕΡΩΝ,13,25,"ΠΛΑΤΕΙΑ ΕΛΕΥΘΕΡΙΑΣ 1, 68500, ΦΕΡΡΕΣ"
762,,39.38183975,22.74984932,ΔΗΜΟΣ ΦΕΡΩΝ,13,37,ΒΕΛΕΣΤΙΝΟ 37500 ΜΑΓΝΗΣΙΑ
763,,41.01482773,24.29909706,ΔΗΜΟΣ ΦΙΛΙΠΠΩΝ,13,13,64003 ΚΡΗΝΙΔΕΣ
764,,41.12184143,25.63240814,ΔΗΜΟΣ ΦΙΛΛΥΡΑΣ,13,15,"ΦΙΛΥΡΑ ΝΟΜΟΥ ΡΟΔΟΠΗΣ, 69300"
765,,40.62436295,21.70736694,ΔΗΜΟΣ ΦΙΛΩΤΑ,13,23,"ΕΛΕΥΘΕΡΙΟΥ ΒΕΝΙΖΕΛΟΥ 1, 53070 ΦΙΛΩΤΑ"
766,,40.77865982,21.40234566,ΔΗΜΟΣ ΦΛΩΡΙΝHΣ,13,23,ΜΕΓΑΛΟΥ ΑΛΕΞΑΝΔΡΟΥ 107 53100 ΦΛΩΡΙΝΑ
767,,39.06106186,21.8778801,ΔΗΜΟΣ ΦΟΥΡΝΑΣ,13,29,ΦΟΥΡΝΑ ΕΥΡΥΤΑΝΙΑΣ
768,,37.58375168,26.43709373,ΔΗΜΟΣ ΦΟΥΡΝΩΝ ΚΟΡΣΕΩΝ,13,30,"ΦΟΥΡΝΟΙ ΚΟΡΣΕΩΝ, 83400"
769,,38.95629501,21.60438728,ΔΗΜΟΣ ΦΡΑΓΚΙΣΤΑΣ,13,29,"ΔΥΤΙΚΗ ΦΡΑΓΚΙΣΤΑ, Ν.ΕΥΡΥΤΑΝΙΑΣ, 36071"
770,,38.49468613,22.84453201,ΔΗΜΟΣ ΧΑΙΡΩΝΕΙΑΣ,13,8,ΔΗΜΟΣ ΧΑΙΡΩΝΕΙΑΣ 32100
771,,38.46253586,23.59069252,ΔΗΜΟΣ ΧΑΛΚΙΔΕΩΝ,13,6,ΔΗΜΟΣ ΧΑΛΚΙΔΕΩΝ (Φαρμακίδου 15 34100 Χαλκίδα )
772,,39.94666672,21.61305618,ΔΗΜΟΣ ΧΑΣΙΩΝ,13,10,"ΚΑΡΠΕΡΟ ΓΡΕΒΕΝΩΝ, 51100"
773,,39.94666672,21.61305618,ΔΗΜΟΣ ΧΑΣΙΩΝ,13,16,ΜΥΚΑΝΗ 42200
774,,41.08877182,22.7782917,ΔΗΜΟΣ ΧΕΡΣΟΥ,13,14,"ΧΕΡΣΟ ΚΙΛΚΙΣ, 61002"
775,,38.37215042,26.13456917,ΔΗΜΟΣ ΧΙΟΥ,13,19,"ΔΗΜΟΚΡΑΤΙΑΣ 2, 82100 ΧΙΟΣ"
776,,40.98413849,24.7041893,ΔΗΜΟΣ ΧΡΥΣΟΥΠΟΛΗΣ,13,13,"ΕΛ. ΒΕΝΙΖΕΛΟΥ 39, 64200 ΧΡΥΣΟΥΠΟΛΗ"
777,,38.56192017,25.57995033,ΔΗΜΟΣ ΨΑΡΩΝ,13,19,ΨΑΡΑ ΧΙΟΥ 82104
778,,38.93035507,23.10841942,ΔΗΜΟΣ ΩΡΕΩΝ,13,6,"ΠΑΛΑΙΑ ΕΘΝΙΚΗ ΟΔΟΣ ΑΙΔΗΨΟΥ -ΧΑΛΚΙΔΑΣ, 34012, ΩΡΕΟΙ ΕΥΒΟΙΑΣ"
779,,41.11886978,25.40552711,ΔΙΕΥΡΥΜΕΝΗ ΝΟΜΑΡΧΙΑΚΗ ΑΥΤΟΔΙΟΙΚΗΣΗ ΕΒΡΟΥ-ΡΟΔΟΠΗΣ,41,15,"ΑΠ. ΣΟΥΖΟΥ 14, Τα.Κ 69100 ΚΟΜΟΤΗΝΗ"
780,,41.13592529,24.88399887,ΔΙΕΥΡΥΜΕΝΗ ΝΟΜΑΡΧΙΑΚΗ ΑΥΤΟΔΙΟΙΚΗΣΗ ΞΑΝΘΗΣ-ΔΡΑΜΑΣ-ΚΑΒΑΛΑΣ,41,7,"ΚΕΝΤΡ. ΠΛΑΤΕΙΑ & ΘΕΡΜΟΠΥΛΩΝ 1, Κτίριο ¶στρον, Τα.Κ 67100 ΞΑΝΘΗ"
781,,40.30102921,21.78596306,ΠΕ.Σ.Υ. ΔΥΤΙΚΗΣ ΜΑΚΕΔΟΝΙΑΣ - ΚΟΖΑΝΗΣ,66,52,"ΦΙΛΛΙΠΟΥ Β 33, ΚΟΖΑΝΗ, 55100"
782,,39.63925552,22.42180061,5η ΥΠΕ ΘΕΣΣΑΛΙΑΣ ΚΑΙ ΣΤΕΡΕΑΣ ΕΛΛΑΔΑΣ (ΠΓΝ Λάρισας),66,9,"ΝΙΚΗΤΑΡΑ 18, 41221 ΛΑΡΙΣΑ"
784,,39.7519455,22.36954117,ΘΧΠ «Ο ΑΡΙΣΤΕΥΣ» ΑΜΠΕΛΩΝΑΣ ΛΑΡΙΣΑΣ,70,9,ΑΜΠΕΛΩΝΑΣ 40400 ΛΑΡΙΣΑΣ
785,,39.12754822,22.30306053,ΘΧΠ ΔΟΜΟΚΟΥ,70,39,ΔΗΜΟΚΡΑΤΙΑΣ 62 35010 ΔΟΜΟΚΟΣ
786,,41.15462494,24.14450264,ΘΧΠ ΔΡΑΜΑΣ,70,2,"ΔΙΟΓΕΝΟΥΣ 1, 66100"
787,,38.44492722,23.5834465,ΘΧΠ ΕΥΒΟΙΑΣ - ΒΑΘΥ ΑΥΛΙΔΑΣ,70,6,"ΒΑΘΥ ΑΥΛΙΔΑΣ, 34100 ΕΥΒΟΙΑ"
788,,40.94367981,24.26282501,ΘΧΠ ΚΑΒΑΛΑΣ - ΕΛΕΥΘΕΡΟΥΠΟΛΗ,70,13,"1,5 ΧΙΛ. ΕΛΕΥΘΕΡΟΥΠΟΛΗΣ-ΣΕΡΡΩΝ 64100"
789,,41.11886978,25.40552711,ΘΧΠ ΠΑΙΔΩΝ ΚΟΜΟΤΗΝΗΣ,70,15,15ο ΧΙΛ. ΚΟΜΟΤΗΝΗΣ-ΞΑΝΘΗΣ 69100 ΚΟΜΟΤΗΝΗ
790,,39.58892822,21.72795486,ΘΧΠ ΤΡΙΚΑΛΩΝ - ΜΕΓΑΛΟ ΚΕΦΑΛΟΒΡΥΣΟ ΤΡΙΚΑΛΩΝ,70,16,ΜΕΓΑΛΟ ΚΕΦΑΛΟΒΡΥΣΟ ΤΡΙΚΑΛΩΝ 42100
791,,39.07416534,26.35333252,ΙΔΡΥΜΑ ΚΟΙΝΩΝΙΚΗΣ ΠΡΟΝΟΙΑΣ «ΘΕΟΜΗΤΩΡ» (ΑΓΙΑΣΟΥ ΛΕΣΒΟΥ),18,26,ΙΔΡΥΜΑ ΚΟΙΝΩΝΙΚΗΣ ΠΡΟΝΟΙΑΣ «ΘΕΟΜΗΤΩΡ» ΑΓΙΑΣΟΣ ΛΕΣΒΟΥ 81101
792,,38.91724396,21.79437065,ΙΔΡΥΜΑ ΚΟΙΝΩΝΙΚΗΣ ΠΡΟΝΟΙΑΣ ΚΑΡΠΕΝΗΣΙΟΥ,18,29,"ΠΡΟΥΣΙΩΤΙΣΣΑΣ 6, 36100, ΚΑΡΠΕΝΗΣΙ"
793,,40.62868118,22.45107651,ΚΕΠ ΔΗΜΟΥ ΑΛΕΞΑΝΔΡΕΙΑΣ,24,11,"Δ. ΒΕΤΣΟΠΟΥΛΟΥ 6, 59300 ΑΛΕΞΑΝΔΡΕΙΑ"
794,,40.84881592,25.8731842,ΚΕΠ ΔΗΜΟΥ ΑΛΕΞΑΝΔΡΟΥΠΟΛΗΣ,24,25,"Ι. ΚΑΒΥΡΗ 24-26, 68100 ΑΛΕΞΑΝΔΡΟΥΠΟΛΗ"
795,,39.18275833,22.75943184,ΚΕΠ ΑΛΜΥΡΟΥ,24,37,ΒΑΣ. ΚΩΝ/ΝΟΥ 117 ΙΑΣΟΝΟΣ 37100 ΑΛΜΥΡΟΣ
796,,40.97529602,22.06276321,ΚΕΠ ΑΡΙΔΑΙΑΣ,24,5,"ΛΕΩΦΟΡΟΣ ΚΥΠΡΟΥ 55, 58400, ΑΡΙΔΑΙΑ"
797,,37.73524094,26.97346878,ΚΕΠ ΒΑΘΕΟΣ,24,30,ΠΛΑΤΕΙΑ ΔΗΜΑΡΧΟΥ 83100 ΣΑΜΟΣ (300 ΠΕΡΙΠΟΥ ΜΕΤΡΑ ΑΠΌ ΤΟΝ ΟΤΕ)
798,,40.52364349,22.20294762,ΚΕΠ ΔΗΜΟΥ ΒΕΡΟΙΑΣ,24,11,ΚΕΝΤΡΙΚΗΣ 68-59100
799,,39.35867691,22.94915962,ΚΕΠ ΒΟΛΟΥ,24,37,"ΙΑΣΟΝΟΣ 112, 38221, ΒΟΛΟΣ"
800,,40.7894516,22.40554047,ΚΕΠ ΓΙΑΝΝΙΤΣΩΝ,24,5,ΠΑΥΛΟΥ ΜΕΛΑ 19 ΓΙΑΝΝΙΤΣΑ
801,,40.08358765,21.42619705,ΚΕΠ ΓΡΕΒΕΝΩΝ,24,10,"ΦΑΡΔΥΚΑΜΠΟΥ 2, 51100 ΓΡΕΒΕΝΑ"
802,,41.34780502,26.49311066,ΚΕΠ ΔΗΜΟΥ ΔΙΔΥΜΟΤΕΙΧΟΥ,24,25,"ΠΑΡΟΔΟΣ Β. ΓΕΩΡΓΙΟΥ, 68300 ΔΙΔΥΜΟΤΕΙΧΟ"
803,,40.79791641,22.04933739,ΚΕΠ ΕΔΕΣΣΑΣ,24,5,"ΦΙΛΙΠΠΟΥ 33, 58200, ΕΔΕΣΣΑ"
804,,39.89468002,22.18857574,"ΚΕΠ ΔΗΜΟΥ ΕΛΑΣΣΟΝΑΣ, Ν. ΛΑΡΙΣΑΣ",24,9,"6ης ΟΚΤΩΒΡΙΟΥ& ΜΑΥΡΟΔΗΜΟΥ, 40200 ΕΛΑΣΣΟΝΑ"
805,,41.18293762,23.28198433,ΚΕΠ ΗΡΑΚΛΕΙΑΣ,24,45,"25ης ΣΕΠΤΕΜΒΡΙΟΥ 25, 62400"
806,,40.77247238,24.71510887,ΚΕΠ ΔΗΜΟΥ ΘΑΣΟΥ,24,13,"ΚΕΠ ΔΗΜΟΥ ΘΑΣΟΥ, 64004"
807,,38.31975937,23.31760216,ΚΕΠ ΔΗΜΟΥ ΘΗΒΑΙΩΝ,24,8,"ΠΕΛΟΠΙΔΟΥ 41, ΘΗΒΑ 32200"
808,,40.93655014,24.41317177,ΚΕΠ Ν.Α. ΚΑΒΑΛΑΣ,24,13,"ΣΠΕΤΣΩΝ 29, 65302 ΚΑΒΑΛΑ"
809,,39.70661926,21.62887383,ΚΕΠ ΚΑΛΑΜΠΑΚΑΣ,24,16,"ΕΥΘΥΜΙΟΥ ΒΛΑΧΑΒΑ 3, 42200 ΚΑΛΑΜΠΑΚΑ"
810,,39.36509705,21.92144394,ΚΕΠ ΔΗΜΟΥ ΚΑΡΔΙΤΣΑΣ,24,33,"ΚΟΛΟΚΟΤΡΩΝΗ 8, 43100 ΚΑΡΔΙΤΣΑ"
811,,40.51963043,21.27026939,ΚΕΠ ΔΗΜΟΥ ΚΑΣΤΟΡΙΑΣ,24,41,ΒΑΛΑΛΑ 11 ΚΑΣΤΟΡΙΑ
812,,40.27148056,22.50866127,ΚΕΠ ΚΑΤΕΡΙΝΗΣ,24,36,"ΠΛΑΤΕΙΑ ΝΕΟΥ ΔΗΜΑΡΧΕΙΟΥ, 60100, ΚΑΤΕΡΙΝΗ"
813,,40.99376297,22.87629128,ΚΕΠ Ν.Α. ΚΙΛΚΙΣ,24,14,"21ης ΙΟΥΝΙΟΥ 99, 61100 ΚΙΛΚΙΣ"
814,,40.30022812,21.79089737,ΚΕΠ ΔΗΜΟΥ ΚΟΖΑΝΗΣ,24,52,ΒΕΝΙΖΕΛΟΥ 50100 ΚΟΖΑΝΗ
815,,41.1178627,25.40457916,ΚΕΠ ΚΟΜΟΤΗΝΗΣ,24,15,"ΠΛΑΤΕΙΑ ΕΙΡΗΝΗΣ, 69100 ΚΟΜΟΤΗΝΗ"
816,,38.89929962,22.4358902,ΚΕΠ ΛΑΜΙΕΩΝ,24,39,"ΛΕΩΝΙΔΟΥ 9, 35100"
817,,38.43553162,22.87537193,ΚΕΠ ΛΕΒΑΔΕΩΝ,24,8,"ΕΛΕΥΘΕΡΙΟΥ ΒΕΝΙΖΕΛΟΥ 32, 32100"
818,,38.57794189,23.64278984,ΚΕΠ ΔΗΜΟΥ ΜΕΣΣΑΠΙΩΝ,24,6,"ΘΕΡΜΟΠΥΛΩΝ 10, 34400 ΨΑΧΝΑ ΕΥΒΟΙΑΣ"
819,,38.11318207,23.86237144,ΔΗΜΟΣ ΔΡΟΣΙΑΣ,13,51,ΔΡΟΣΙΑ
820,,40.27994537,23.29899406,ΚΕΠ ΜΟΥΔΑΝΙΩΝ,24,20,"Γ. ΠΑΠΑΝΔΡΕΟΥ 12, 63200 Ν. ΜΟΥΔΑΝΙΑ"
821,,39.42595673,21.66402817,ΚΕΠ ΔΗΜΟΥ ΜΟΥΖΑΚΙΟΥ,24,33,"ΑΓΙΟΥ ΓΕΩΡΓΙΟΥ 6, ΜΟΥΖΑΚΙ, 43060"
822,,41.27630615,24.97163963,ΚΕΠ ΜΥΚΗΣ,24,7,ΕΧΙΝΟΣ ΞΑΝΘΗΣ 67300
823,,39.10302734,26.55597496,ΚΕΠ ΔΗΜΟΥ ΜΥΤΙΛΗΝΗΣ,24,26,"ΠΛΑΤΕΙΑ ΚΩΝΣΤΑΝΤΙΝΟΥΠΟΛΕΩΣ 81100, ΜΥΤΙΛΗΝΗ"
824,,40.63041687,22.07235336,ΚΕΠ ΔΗΜΟΥ ΝΑΟΥΣΗΣ,24,11,"Μ. ΑΛΕΞΑΝΔΡΟΥ 1, 59100"
825,,40.98628235,23.81088066,ΚΕΠ ΝΕΑΣ ΖΙΧΝΗΣ,24,45,"ΝΕΑ ΖΙΧΝΗ, 62042"
826,,39.37395859,22.93010902,"ΚΕΠ ΝΕΑΣ ΙΩΝΙΑΣ, Ν. ΜΑΓΝΗΣΙΑΣ",24,37,"ΦΙΛΑΔΕΛΦΕΙΘΑΣ 98, Ν.ΙΩΝΙΑ, 38445"
827,,40.91501617,23.50151634,ΚΕΠ ΝΙΓΡΙΤΗΣ,24,45,"ΣΕΡΡΩΝ 5 ΝΙΓΡΙΤΑ, 62200"
828,,41.13706207,24.88949394,ΚΕΠ ΞΑΝΘΗΣ,24,7,"ΣΜΥΡΝΗΣ 7, 67100 ΞΑΝΘΗ"
829,,41.51286316,26.49019814,ΚΕΠ ΔΗΜΟΥ ΟΡΕΣΤΙΑΔΟΣ,24,25,ΒΑΣ. ΚΩΝ/ΝΟΥ 9-11 68200 ΟΡΕΣΤΙΑΔΑ
830,,38.49381638,22.97920227,ΚΕΠ ΟΡΧΟΜΕΝΟΥ,24,8,"ΠΕΣΟΝΤΩΝ ΜΑΧΗΤΩΝ 8, 32300, ΟΡΧΟΜΕΝΟΣ"
831,,39.36436081,21.92417145,ΚΕΠ ΔΗΜΟΥ ΠΑΛΑΜΑ,24,33,"ΗΡΩΩΝ ΠΟΛΥΤΕΧΝΕΙΟΥ 10, 43200 ΚΑΡΔΙΤΣΑ"
832,,40.57190323,22.59602737,ΚΕΠ ΔΗΜΟΥ ΠΛΑΤΕΟΣ,24,11,"ΕΛ. ΒΕΝΙΖΕΛΟΥ 23, 59032 ΠΛΑΤΥ ΗΜΑΘΙΑΣ"
833,,40.38186646,23.44071579,ΚΕΠ ΠΟΛΥΓΥΡΟΥ,24,20,ΠΟΛΥΤΕΧΝΕΙΟΥ ΚΑΙ ΒΟΥΛΓΑΡΟΚΤΟΝΟΥ 63100
834,,41.19387817,23.90606308,ΚΕΠ ΔΗΜΟΥ ΠΡΟΣΟΤΣΑΝΗΣ,13,2,"ΧΡΗΣΤΟΥ ΣΑΚΑΡΗ 16,  66200"
835,,40.51447678,21.67865372,ΚΕΠ ΔΗΜΟΥ ΠΤΟΛΕΜΑ'Ι'ΔΑΣ,24,52,ΠΟΝΤΟΥ 13 ΠΤΟΛΕΜΑΙΔΑ 50200
836,,40.18136978,22.00139427,ΚΕΠ ΔΗΜΟΥ ΣΕΡΒΙΩΝ,24,52,ΔΙΟΝΥΣΙΟΥ ΣΟΛΩΜΟΥ 7 ΣΕΡΒΙΑ 50500
837,,41.08884048,23.55250359,ΚΕΠ ΣΕΡΡΩΝ,24,45,"ΔΥΤΙΚΗΣ ΘΡΑΚΗΣ 8, ΣΕΡΡΕΣ 62124"
838,,41.2348938,23.38974762,ΚΕΠ ΣΙΔΗΡΟΚΑΣΤΡΟΥ,24,45,"ΠΛΑΤΕΙΑ ΕΛΕΥΘΕΡΙΑΣ 7, 62300, ΣΙΔΗΡΟΚΑΣΤΡΟ"
839,,40.75685501,22.28496552,ΚΕΠ ΣΚΥΔΡΑΣ,24,5,"ΠΑΥΛΟΥ ΜΕΛΑ 46, 58500 , ΣΚΥΔΡΑ"
840,,39.33416367,22.09869576,ΚΕΠ ΔΗΜΟΥ ΣΟΦΑΔΩΝ,24,33,"ΠΑΠΑΓΟΥ & ΔΙΚΟΥ ΣΟΦΑΔΕΣ, 43300"
841,,40.98136902,24.8020668,ΚΕΠ ΤΟΠΕΙΡΟΥ,24,7,"ΕΥΛΑΛΟ ΞΑΝΘΗΣ , 67200"
842,,39.55290985,21.76658058,ΚΕΠ ΤΡΙΚΚΑΙΩΝ,24,16,"ΑΣΚΛΗΠΙΟΥ 18, ΤΡΙΚΑΛΑ, 42100"
843,,37.93981934,22.93809509,ΚΕΠ ΔΗΜΟΥ ΤΥΡΝΑΒΟΥ,24,9,"ΕΘΝΙΚΗΣ ΑΝΕΞΑΡΤΗΣΙΑΣ 1, 40100"
844,,40.78229904,21.40983391,ΚΕΠ ΦΛΩΡΙΝΑΣ,24,23,Λ. ΜΟΔΗ 2 53100 ΦΛΩΡΙΝΑ
845,,38.45763397,23.59396935,ΚΕΠ ΔΗΜΟΥ ΧΑΛΚΙΔΕΩΝ,24,6,"ΠΑΡΚΟ ΒΟΥΡΚΟΥ 34100ΠΑΠΑΣΤΡΑΤΗ 1, ΠΛΑΤΕΙΑ ΚΑΝΗΘΟΥ 34100"
846,,38.37215042,26.13456917,ΚΕΠ ΧΙΟΥ,24,19,"ΔΗΜΟΚΡΑΤΙΑΣ 2, 82100 ΧΙΟΣ"
847,,40.98596954,24.69898796,ΚΕΠ ΔΗΜΟΥ ΧΡΥΣΟΥΠΟΛΗΣ,24,13,"ΕΛ. ΒΕΝΙΖΕΛΟΥ 24,"
848,,41.08831024,23.54281425,ΚΑΕΑΜΕΑ ΣΕΡΡΩΝ (ΚΕΝΤΡΟ ΑΠΟΚΑΤΑΣΤΑΣΗΣ),18,45,Δ. ΜΑΥΡΟΥΛΗ 43
849,,37.73524094,26.97346878,ΚΕΚΥΚΑΜΕΑ - ΒΑΘΥ,18,30,ΚΟΥΜΑΡΙΩΝΑΣ 83100 ΣΑΜΟΣ
850,,40.80501556,22.04160118,ΚΕΚΥΚΑΜΕΑ - ΕΔΕΣΣΗΣ,18,5,ΜΕΛΙΝΑΣ ΜΕΡΚΟΥΡΗ 18
851,,38.31975937,23.31760216,ΚΕΚΥΚΑΜΕΑ - ΘΗΒΑΙΩΝ,18,8,2ο ΧΙΛ. ΕΘΝ. ΟΔΟΥ ΘΗΒΑΣ-ΧΑΛΚΙΔΑΣ 32200
852,,39.36555862,21.92668915,ΚΕΚΥΚΑΜΕΑ - ΚΑΡΔΙΤΣΑΣ,18,33,43100 ΚΑΡΔΙΤΣΑ
853,,41.11886978,25.40552711,ΚΕΚΥΚΑΜΕΑ - ΚΟΜΟΤΗΝΗΣ,18,15,ΠΑΝΑΓΙΩΤΗ ΕΛΛΗ  ΕΚΤΕΝΕΠΟΛ ΚΟΜΟΤΗΝΗ 69100
854,,38.89509964,22.44729805,ΚΕΚΥΚΑΜΕΑ - ΛΑΜΙΑΙΩΝ,18,39,ΠΑΠΑΒΑΣΙΛΕΙΟΥ 6& ΧΑΛΜΟΥΚΟΥ 35100
855,,39.20092773,26.17468643,ΚΕΚΥΚΑΜΕΑ - ΜΥΤΙΛΗΝΗΣ,18,26,ΔΑΦΙΑ ΚΑΛΛΟΝΗΣ 81107
856,,41.13592529,24.88399887,ΚΕΚΥΚΑΜΕΑ - ΞΑΝΘΗΣ,18,7,Θ.ΔΟΥΚΑ ΞΑΝΘΗ 67100
857,,40.38167953,23.50142097,ΚΕΚΥΚΑΜΕΑ - ΠΟΛΥΓΥΡΟΥ,18,20,ΑΓΙΟΥ ΜΗΝΑ 63100
858,,40.77868652,21.40237427,ΚΕΚΥΚΑΜΕΑ - ΦΛΩΡΙΝΑΣ,18,23,Μ. ΑΛΕΞΑΝΔΡΟΥ 106 53100
859,,38.36380386,26.13723183,ΚΕΚΥΚΑΜΕΑ - ΧΙΟΥ,18,19,ΠΑΝΑΓΙΑ ΛΑΤΟΜΙΤΙΣΣΑ 82100 ΧΙΟΣ
860,,40.99012375,24.69792557,ΚΕΚΥΚΑΜΕΑ - ΧΡΥΣΟΥΠΟΛΗΣ,18,13,"ΠΟΝΤΙΑΔΟΣ 37,ΧΡΥΣΟΥΠΟΛΗ 64200 ΚΑΒΑΛΑ"
861,,38.52359772,23.65022087,ΚΕΚΥΚΑΜΕΑ ΧΑΛΚΙΔΑΣ,18,6,"Ν. ΑΡΤΑΚΗ 34600, ΧΑΛΚΙΔΑ"
862,,40.90791702,23.50035477,ΚΕΝΤΡΟ ΑΠΟΘΕΡΑΠΕΙΑΣ ΦΥΣΙΚΗΣ ΚΑΙ ΚΟΙΝ. ΑΠΟΚΑΤΑΣΤΑΣΗΣ (ΚΑΦΚΑ) - ΝΙΓΡΙΤΑΣ,18,45,"ΤΕΡΜΑ ΘΕΡΜΩΝ, ΝΙΓΡΙΤΑ"
863,,41.49055862,26.53320885,ΚΕΝΤΡΟ ΑΠΟΘΕΡΑΠΕΙΑΣ ΦΥΣΙΚΗΣ ΚΑΙ ΚΟΙΝ. ΑΠΟΚΑΤΑΣΤΑΣΗΣ (ΚΕΚΥΑΜΕΑ) - ΟΡΕΣΤΙΑΔΟΣ,18,25,"ΚΩΝΣΤΑΝΤΙΝΟΥΠΟΛΕΩΣ 57, 68200, ΟΡΕΣΤΙΑΔΑ"
864,,40.68333435,21.68333244,ΚΕΝΤΡΟ ΑΠΟΘΕΡΑΠΕΙΑΣΦΥΣΙΚΗΣ ΚΑΙ ΚΟΙΝ. ΑΠΟΚΑΤΑΣΤΑΣΗΣ (ΚΑΦΚΑ) - ΑΜΥΝΤΑΙΟΥ,18,23,ΑΜΥΝΤΑΙΟ 53200
865,,39.48466873,22.47682953,ΚΕΝΤΡΟ ΑΠΟΚΑΤΑΣΤΑΣΗΣ ΠΑΙΔΙΩΝ ΑΜΕΑ ΛΑΡΙΣΑΣ «Ο ΑΡΙΣΤΕΥΣ»,18,9,ΓΙΑΝΝΟΥΛΗ ΛΑΡΙΣΑΣ 41500
866,,41.15448761,24.1459465,ΚΕΝΤΡΟ ΠΑΙΔΙΚΗΣ ΜΕΡΙΜΝΑΣ ΑΡΡΕΝΩΝ ΔΡΑΜΑΣ (ΚΠΜ),18,2,"ΙΠΠΟΚΡΑΤΟΥΣ 45 , 66100"
867,,38.8956871,22.43545723,ΚΕΝΤΡΟ ΠΑΙΔΙΚΗΣ ΜΕΡΙΜΝΑΣ ΑΡΡΕΝΩΝ ΛΑΜΙΑΣ,18,39,ΣΜΥΡΝΗΣ 25 35100 ΛΑΜΙΑ
868,,40.77868652,21.40237427,ΚΕΝΤΡΟ ΠΑΙΔΙΚΗΣ ΜΕΡΙΜΝΑΣ ΑΡΡΕΝΩΝ ΦΛΩΡΙΝΑΣ - ΠΑΙΔΟΠΟΛΗ ΘΗΛΕΩΝ-ΦΛΩΡΙΝΑΣ,18,23,Μ. ΑΛΕΞΑΝΔΡΟΥ 106 53100
869,,39.36509323,22.94923592,ΚΕΝΤΡΟ ΣΤΗΡΙΞΗΣ ΑΥΤΙΣΤΙΚΩΝ ΑΤΟΜΩΝ - ΝΕΑΣ ΙΩΝΙΑΣ,18,37,"ΤΕΡΜΑ ΕΛΕΥΘΕΡΙΟΥ ΒΕΝΙΖΕΛΟΥ, ΓΕΦΥΡΑ ΞΗΡΙΑ, ΑΛΙΒΕΡΙ"
870,,40.89547348,23.74775124,ΚΕΝΤΡΟ ΥΓΕΙΑΣ ΜΑΥΡΟΘΑΛΑΣΣΑΣ,64,45,ΜΑΥΡΟΘΑΛΑΣΣΑΣ ΣΕΡΡΩΝ
871,,39.34698868,21.45793724,ΚΕΝΤΡΟ ΥΓΕΙΑΣ - ΠΕΡΙΦΕΡΕΙΑΚΟ ΙΑΤΡΕΙΟ ΑΝΘΗΡΟΥ,64,33,ΠΕΡΙΦΕΡΕΙΑΚΟ ΙΑΤΡΕΙΟ ΑΝΘΗΡΟΥ (ΔΗΜΑΡΧΕΙΟ ΑΝΘΗΡΟΥ) 43065 ΑΝΘΗΡΟ ΚΑΡΔΙΤΣΑΣ
872,,37.62974167,26.17767715,ΚΕΝΤΡΟ ΥΓΕΙΑΣ - ΠΕΡΙΦΕΡΕΙΑΚΟ ΙΑΤΡΕΙΟ ΕΥΔΗΛΟΥ,64,30,ΕΥΔΗΛΟΣ 83302 ΙΚΑΡΙΑ
873,,39.30564499,21.69411278,ΚΕΝΤΡΟ ΥΓΕΙΑΣ - ΠΕΡΙΦΕΡΕΙΑΚΟ ΙΑΤΡΕΙΟ ΠΕΖΟΥΛΑΣ,64,33,"ΠΕΖΟΥΛΑ 43100, ΚΑΡΔΙΤΣΑ"
874,,39.36555862,21.92668915,ΚΕΝΤΡΟ ΥΓΕΙΑΣ - ΠΕΡΙΦΕΡΕΙΑΚΟ ΙΑΤΡΕΙΟ ΠΡΟΑΣΤΙΟΥ ΚΑΡΔΙΤΣΑΣ,64,33,"ΚΤΙΡΙΟ ΔΗΜΟΥ ΣΕΛΛΑΝΩΝ, ΚΑΠΗ 43100 ΚΑΡΔΙΤΣΑ"
875,,39.71889496,22.7554245,ΚΕΝΤΡΟ ΥΓΕΙΑΣ ΑΓΙΑΣ,64,9,ΑΓΙΑ 40003 ΛΑΡΙΣΑ
876,,39.93007278,23.7385006,ΚΕΝΤΡΟ ΥΓΕΙΑΣ ΑΓΙΟΥ ΝΙΚΟΛΑΟΥ,64,20,ΑΓΙΟΣ ΝΙΚΟΛΑΟΣ
877,,40.51137161,22.54114723,ΚΕΝΤΡΟ ΥΓΕΙΑΣ ΑΙΓΙΝΙΟ,64,36,ΑΙΓΙΝΙΟ ΠΙΕΡΙΑΣ
878,,40.62555313,22.43538857,ΚΕΝΤΡΟ ΥΓΕΙΑΣ ΑΛΕΞΑΝΔΡΕΙΑΣ,64,11,ΣΜΥΡΝΗΣ 1
879,,38.37259674,23.09915161,ΚΕΝΤΡΟ ΥΓΕΙΑΣ ΑΛΙΑΡΤΟΥ,64,8,ΑΛΙΑΡΤΟΣ 32001
880,,38.40976334,24.03766823,ΚΕΝΤΡΟ ΥΓΕΙΑΣ ΑΛΙΒΕΡΙΟΥ,64,6,ΑΛΙΒΕΡΙ 34500
881,,39.18275833,22.75943184,ΚΕΝΤΡΟ ΥΓΕΙΑΣ ΑΛΜΥΡΟΥ,64,37,ΑΛΜΥΡΟΣ 37100 ΜΑΓΝΗΣΙΑ
882,,40.70759583,21.64348793,ΚΕΝΤΡΟ ΥΓΕΙΑΣ ΑΜΥΝΤΑΙΟΥ,64,23,Δ.Δ ΑΜΥΝΤΑΙΟΥ
883,,38.64042664,22.58904648,ΚΕΝΤΡΟ ΥΓΕΙΑΣ ΑΜΦΙΚΛΕΙΑΣ,64,39,ΑΜΦΙΚΛΕΙΑ 35002
884,,39.26451111,26.27770805,ΚΕΝΤΡΟ ΥΓΕΙΑΣ ΑΝΤΙΣΣΑΣ,64,26,ΑΝΤΙΣΣΑ 81101 ΛΕΣΒΟΣ
885,,39.22597122,23.21939087,ΚΕΝΤΡΟ ΥΓΕΙΑΣ ΑΡΓΑΛΑΣΤΗΣ,64,37,ΑΡΓΑΛΑΣΤΗ 37006 ΜΑΓΝΗΣΙΑ
886,,40.45583344,21.25707626,ΚΕΝΤΡΟ ΥΓΕΙΑΣ ΑΡΓΟΥΣ ΟΡΕΣΤΙΚΟΥ,64,41,ΑΛΙΑΚΜΟΝΟΣ 1 52200
887,,40.97003174,22.06035614,ΚΕΝΤΡΟ ΥΓΕΙΑΣ ΑΡΙΔΑΙΑΣ,64,5,ΠΑΥΛΟΥ ΜΕΛΑ 9
888,,40.79496002,21.83641815,ΚΕΝΤΡΟ ΥΓΕΙΑΣ ΑΡΝΙΣΣΑΣ,64,5,ΑΡΝΙΣΣΑ
889,,38.65465546,22.9948864,ΚΕΝΤΡΟ ΥΓΕΙΑΣ ΑΤΑΛΑΝΤΗΣ,64,39,ΑΤΑΛΑΝΤΗ 35200
890,,39.38183975,22.74984932,ΚΕΝΤΡΟ ΥΓΕΙΑΣ ΒΕΛΕΣΤΙΝΟΥ,64,37,ΒΕΛΕΣΤΙΝΟ 37500 ΜΑΓΝΗΣΙΑ
891,,39.96666718,22.46027756,ΚΕΝΤΡΟ ΥΓΕΙΑΣ ΓΟΝΝΩΝ,64,9,ΓΟΝΝΟΙ ΛΑΡΙΣΑΣ 40004
892,,39.92642212,21.80853653,ΚΕΝΤΡΟ ΥΓΕΙΑΣ ΔΕΣΚΑΤΗΣ ΓΡΕΒΕΝΩΝ,64,10,ΔΕΣΚΑΤΗ 51200
893,,41.70457458,26.29794312,ΚΕΝΤΡΟ ΥΓΕΙΑΣ ΔΙΚΑΙΩΝ,64,25,"ΔΙΚΑΙΑ 68007, Ν. ΕΒΡΟΥ"
894,,38.4420929,22.67945862,ΚΕΝΤΡΟ ΥΓΕΙΑΣ ΔΙΣΤΟΜΟΥ,64,8,ΔΙΣΤΟΜΟ 32005
895,,39.12754822,22.30306053,ΚΕΝΤΡΟ ΥΓΕΙΑΣ ΔΟΜΟΚΟΥ,64,39,ΔΟΜΟΚΟΣ 35010
896,,41.15452576,22.79863358,ΚΕΝΤΡΟ ΥΓΕΙΑΣ ΔΡΟΣΑΤΟΥ,64,14,"ΔΡΟΣΑΤΟ ΚΙΛΚΙΣ, 61003"
897,,38.91724396,21.79437065,ΚΕΝΤΡΟ ΥΓΕΙΑΣ ΔΥΤΙΚΗ ΦΡΑΓΚΙΤΣΑΣ,64,29,"Π. ΜΠΑΚΟΓΙΑΝΝΗ 2, ΚΑΡΠΕΝΗΣΙ 36100"
898,,39.89468002,22.18857574,ΚΕΝΤΡΟ ΥΓΕΙΑΣ ΕΛΑΣΣΟΝΑΣ,64,9,ΕΛΑΣΣΟΝΑ 40200 ΛΑΡΙΣΑ
899,,40.91252518,24.2542038,ΚΕΝΤΡΟ ΥΓΕΙΑΣ ΕΛΕΥΘΕΡΟΥΠΟΛΗΣ,64,13,ΕΓΝΑΤΙΑΣ 73 64100 ΕΛΕΥΘΕΡΟΥΠΟΛΗ
900,,41.27630615,24.97163963,ΚΕΝΤΡΟ ΥΓΕΙΑΣ ΕΧΙΝΟΥ,64,7,"ΕΧΙΝΟΣ Ν. ΞΑΝΘΗΣ, 67300"
901,,39.44194031,23.10450935,ΚΕΝΤΡΟ ΥΓΕΙΑΣ ΖΑΓΟΡΑΣ,64,37,ΖΑΓΟΡΑ 37001 ΜΑΓΝΗΣΙΑ
902,,41.27393723,23.29901123,ΚΕΝΤΡΟ ΥΓΕΙΑΣ ΗΡΑΚΛΕΙΑΣ,64,45,ΗΡΑΚΛΕΙΑ ΣΕΡΡΩΝ
903,,41.1275444,25.18449211,ΚΕΝΤΡΟ ΥΓΕΙΑΣ ΙΑΣΜΟΥ,64,15,ΙΑΣΜΟΣ 69200 ΡΟΔΟΠΗ
904,,38.95357513,23.15097046,ΚΕΝΤΡΟ ΥΓΕΙΑΣ ΙΣΤΙΑΙΑΣ,64,6,ΙΣΤΙΑΙΑ 34200
905,,38.43706894,22.4194603,ΚΕΝΤΡΟ ΥΓΕΙΑΣ ΙΤΕΑΣ,64,34,"ΕΠ. ΠΑΠΑΛΕΞΑΝΔΡΗ 7, ΙΤΕΑ 33200"
906,,39.35824203,22.9564991,ΚΕΝΤΡΟ ΥΓΕΙΑΣ Κ.Ψ.Υ. ΒΟΛΟΥ,64,37,"ΝΙΚΟΤΣΑΡΑ 20, 38222"
907,,39.696064,21.64015007,ΚΕΝΤΡΟ ΥΓΕΙΑΣ ΚΑΛΑΜΠΑΚΑΣ,64,16,ΚΑΛΑΜΠΑΚΑ 42200 ΤΡΙΚΑΛΩΝ
908,,39.23170471,26.20510292,ΚΕΝΤΡΟ ΥΓΕΙΑΣ ΚΑΛΛΟΝΗΣ,64,26,ΚΑΛΛΟΝΗ 81107 ΛΕΣΒΟΣ
909,,37.78333282,26.70000076,ΚΕΝΤΡΟ ΥΓΕΙΑΣ ΚΑΡΛΟΒΑΣΟΥ,64,30,ΚΑΡΛΟΒΑΣΙ 83200 ΣΑΜΟΣ
910,,40.04799271,23.41212463,ΚΕΝΤΡΟ ΥΓΕΙΑΣ ΚΑΣΣΑΝΔΡΕΙΑΣ,64,20,ΚΑΣΣΑΝΔΡΕΙΑ
911,,40.69345856,22.30218887,ΚΕΝΤΡΟ ΥΓΕΙΑΣ ΚΡΥΑΣ ΒΡΥΣΗΣ,64,5,ΑΘΗΝΑΣ ΑΡΧΗ
912,,38.52797318,22.20482063,ΚΕΝΤΡΟ ΥΓΕΙΑΣ ΛΙΔΩΡΙΚΙΟΥ,64,34,ΛΙΔΟΡΙΚΙ 33053
913,,40.10292435,22.5019207,ΚΕΝΤΡΟ ΥΓΕΙΑΣ ΛΙΤΟΧΩΡΟ,64,36,ΛΙΤΟΧΩΡΟ
914,,38.9415741,22.11578941,ΚΕΝΤΡΟ ΥΓΕΙΑΣ ΜΑΚΡΑΚΩΜΗΣ,64,39,ΜΑΚΡΑΚΩΜΗ 35011
915,,38.80400085,23.50450134,ΚΕΝΤΡΟ ΥΓΕΙΑΣ ΜΑΝΤΟΥΔΙΟΥ,64,6,ΜΑΝΤΟΥΔΙ 34004
916,,40.2391243,23.28501511,ΚΕΝΤΡΟ ΥΓΕΙΑΣ ΜΟΥΔΑΝΙΩΝ,64,20,ΝΕΑ ΜΟΥΔΑΝΙΑ ΧΑΛΚΙΔΙΚΗΣ
917,,39.36555862,21.92668915,ΚΕΝΤΡΟ ΥΓΕΙΑΣ ΜΟΥΖΑΚΙΟΥ,64,33,ΜΟΥΖΑΚΙ 43030 ΚΑΡΔΙΤΣΑ
918,,41.03427124,23.83052254,ΚΕΝΤΡΟ ΥΓΕΙΑΣ Ν. ΖΙΧΝΗΣ,64,45,Ν. ΖΙΧΝΗ ΣΕΡΡΩΝ
919,,40.91501617,23.50151634,ΚΕΝΤΡΟ ΥΓΕΙΑΣ ΝΙΓΡΙΤΑΣ,64,45,ΝΙΓΡΙΤΑ ΣΕΡΡΩΝ
920,,41.49433136,26.53391266,ΚΕΝΤΡΟ ΥΓΕΙΑΣ ΟΡΕΣΤΙΑΔΑΣ,64,25,ΕΥΡΙΠΙΔΟΥ 10 ΟΡΕΣΤΙΑΔΑ Ν. ΕΒΡΟΥ
921,,40.49126053,23.64855194,ΚΕΝΤΡΟ ΥΓΕΙΑΣ ΠΑΛΑΙΟΧΩΡΙΟΥ,64,20,ΠΑΛΑΙΟΧΩΡΙ
922,,39.47076416,22.07282257,ΚΕΝΤΡΟ ΥΓΕΙΑΣ ΠΑΛΑΜΑ,64,33,ΠΑΛΑΜΑΣ 43200 ΚΑΡΔΙΤΣΑ
923,,41.26566315,24.50168419,ΚΕΝΤΡΟ ΥΓΕΙΑΣ ΠΑΡΑΝΕΣΤΙΟΥ,64,2,ΠΑΡΑΝΕΣΤΙ 66035
924,,38.97503281,26.36850357,ΚΕΝΤΡΟ ΥΓΕΙΑΣ ΠΛΩΜΑΡΙΟΥ,64,26,ΠΛΩΜΑΡΙ 81200 ΛΕΣΒΟΣ
925,,40.99788284,22.57089996,ΚΕΝΤΡΟ ΥΓΕΙΑΣ ΠΟΛΥΚΑΣΤΡΟΥ,64,14,ΠΟΛΥΚΑΣΤΡΟ ΚΙΛΚΙΣ
926,,39.06814194,26.20683479,ΚΕΝΤΡΟ ΥΓΕΙΑΣ ΠΟΛΥΧΝΗΤΟΥ,64,26,ΠΟΛΥΧΝΙΤΟΣ 81300 ΛΕΣΒΟΣ
927,,41.17864227,23.97215652,ΚΕΝΤΡΟ ΥΓΕΙΑΣ ΠΡΟΣΟΤΣΑΝΗΣ,64,2,ΠΡΟΣΟΤΣΑΝΗ 66200 ΔΡΑΜΑ
928,,39.45867538,21.62044525,ΚΕΝΤΡΟ ΥΓΕΙΑΣ ΠΥΛΗΣ,64,16,ΠΥΛΗ 42032 ΤΡΙΚΑΛΑ
929,,38.22711563,25.99886322,ΚΕΝΤΡΟ ΥΓΕΙΑΣ ΠΥΡΓΙΟΥ,64,19,ΠΥΡΓΙ ΧΙΟΣ
930,,40.89849472,23.86329842,ΚΕΝΤΡΟ ΥΓΕΙΑΣ ΡΟΔΟΛΙΒΟΣ,64,45,ΡΟΔΟΛΙΒΟΣ ΣΕΡΡΩΝ
931,,41.08831024,23.54281425,ΚΕΝΤΡΟ ΥΓΕΙΑΣ ΡΟΔΟΠΟΛΗΣ,64,45,ΡΟΔΟΠΟΛΗ ΣΕΡΡΩΝ
932,,40.44768524,25.59179115,ΚΕΝΤΡΟ ΥΓΕΙΑΣ ΣΑΜΟΘΡΑΚΗΣ,64,25,ΧΩΡΑ ΣΑΜΟΘΡΑΚΗΣ 68002
933,,41.08353043,25.71017838,ΚΕΝΤΡΟ ΥΓΕΙΑΣ ΣΑΠΩΝ,64,15,ΣΑΠΕΣ 69300 ΡΟΔΟΠΗ
934,,40.18492126,21.99954414,ΚΕΝΤΡΟ ΥΓΕΙΑΣ ΣΕΡΒΙΩΝ,64,52,ΣΕΡΒΙΑ 50500
935,,40.26260376,21.54743767,ΚΕΝΤΡΟ ΥΓΕΙΑΣ ΣΙΑΤΙΣΤΑΣ,64,52,ΣΙΑΤΙΣΤΑ 50300
936,,41.2348938,23.38974762,ΚΕΝΤΡΟ ΥΓΕΙΑΣ ΣΙΔΗΡΟΚΑΣΤΡΟΥ,64,45,ΣΙΔΗΡΟΚΑΣΤΡΟ ΣΕΡΡΩΝ
937,,39.15629578,23.44189072,ΚΕΝΤΡΟ ΥΓΕΙΑΣ ΣΚΙΑΘΟΥ,64,37,ΣΚΙΑΘΟΣ 37002
938,,39.12197113,23.72555733,ΚΕΝΤΡΟ ΥΓΕΙΑΣ ΣΚΟΠΕΛΟΥ,64,37,ΣΚΟΠΕΛΟΣ 37003
939,,40.76753616,22.15369415,ΚΕΝΤΡΟ ΥΓΕΙΑΣ ΣΚΥΔΡΑΣ,64,5,"ΣΚΥΔΡΑ, 58500"
940,,41.19033432,26.30274582,ΚΕΝΤΡΟ ΥΓΕΙΑΣ ΣΟΥΦΛΙΟΥ,64,25,"Μ. ΠΑΠΑΝΑΣΤΑΣΙΟΥ 2, 68400"
941,,39.33416367,22.09869576,ΚΕΝΤΡΟ ΥΓΕΙΑΣ ΣΟΦΑΔΩΝ,64,33,"ΣΟΦΑΔΕΣ 43300, ΚΑΡΔΙΤΣΑ"
943,,41.2511673,24.66679382,ΚΕΝΤΡΟ ΥΓΕΙΑΣ ΣΤΑΥΡΟΥΠΟΛΗΣ,64,7,ΣΤΑΥΡΟΥΠΟΛΗ 67062 ΞΑΝΘΗ
944,,41.04200745,23.31421661,ΚΕΝΤΡΟ ΥΓΕΙΑΣ ΣΤΡΥΜΟΝΙΚΟΥ,64,45,ΣΤΡΥΜΟΝΙΚΟ ΣΕΡΡΩΝ
945,,38.91308212,22.61491203,ΚΕΝΤΡΟ ΥΓΕΙΑΣ ΣΤΥΛΙΔΑΣ,64,39,ΣΤΥΛΙΔΑ 35300
946,,38.34648514,23.5798645,ΚΕΝΤΡΟ ΥΓΕΙΑΣ ΣΧΗΜΑΤΑΡΙΟΥ,64,8,ΣΧΗΜΑΤΑΡΙ 32009
947,,39.73884964,22.28819084,ΚΕΝΤΡΟ ΥΓΕΙΑΣ ΤΥΡΝΑΒΟΥ,64,9,ΤΥΡΝΑΒΟΣ 40100 ΛΑΡΙΣΑ
948,,39.62521744,22.07148361,ΚΕΝΤΡΟ ΥΓΕΙΑΣ ΦΑΡΚΑΔΟΝΑΣ,64,16,ΦΑΡΚΑΔΟΝΑ 42031 ΤΡΙΚΑΛΑ
949,,39.29395676,22.38454056,ΚΕΝΤΡΟ ΥΓΕΙΑΣ ΦΑΡΣΑΛΩΝ,64,9,ΦΑΡΣΑΛΑ 40300 ΛΑΡΙΣΑ
950,,40.98210526,24.70308685,ΚΕΝΤΡΟ ΥΓΕΙΑΣ ΧΡΥΣΟΥΠΟΛΗΣ,64,13,ΚΥΠΡΟΥ 5 ΧΡΥΣΟΥΠΟΛΗ 64200 ΚΑΒΑΛΑ
951,,38.57794189,23.64278984,ΚΕΝΤΡΟ ΥΓΕΙΑΣ ΨΑΧΝΩΝ,64,6,"ΑΒΑΝΤΩΝ 47, ΨΑΧΝΑ 34400"
952,,41.34566116,23.90606308,ΚΕΝΤΡΟ ΥΓΕΙΑΣ Κ. ΝΕΥΡΟΚΟΠΙΟΥ,64,2,ΝΕΥΡΟΚΟΠΙ 66033 ΔΡΑΜΑ
953,,40.74531555,24.5744133,ΚΕΝΤΡΟ ΥΓΕΙΑΣ ΠΡΙΝΟΥ ΘΑΣΟΥ,64,13,ΠΡΙΝΟΣ ΘΑΣΟΥ 64010
954,,38.4656105,23.59525299,ΚΨΥ ΧΑΛΚΙΔΑΣ,64,6,"ΤΣΙΡΙΓΩΤΗ 29Α, ΧΑΛΚΙΔΑ 34100"
955,,40.27148056,22.50866127,ΚΨΥ ΚΑΤΕΡΙΝΗΣ,64,36,25ης ΜΑΡΤΙΟΥ 102
956,,38.52732849,22.37840652,ΝΓΝ ΑΜΦΙΣΣΑΣ,70,34,"ΟΙΚ. ΔΡΟΣΟΧΩΡΙΟΥ ΑΜΦΙΣΣΑ, 33100"
957,,40.52705383,22.20446396,ΝΓΝ ΒΕΡΟΙΑΣ,70,11,ΑΣΩΜΑΤΑ ΒΕΡΟΙΑΣ
958,,39.35270691,22.96269226,ΝΓΝ ΒΟΛΟΥ ''ΑΧΙΛΛΟΠΟΥΛΕΙΟ',70,37,"ΠΟΛΥΜΕΡΗ 134, 38222 ΒΟΛΟΣ"
959,,40.79310226,22.41149521,ΝΓΝ ΓΙΑΝΝΙΤΣΩΝ,70,5,"ΤΕΡΜΑ ΣΕΜΕΡΤΖΙΔΗ 58100, ΓΙΑΝΝΙΤΣΑ"
960,,40.08675003,21.43725967,ΝΓΝ ΓΡΕΒΕΝΩΝ,70,10,"Μ. ΑΛΕΞΑΝΔΡΟΥ 69, 51100"
961,,41.34780502,26.49311066,ΝΓΝ ΔΙΔΥΜΟΤΕΙΧΟΥ,70,25,25η ΜΑΡΤΙΟΥ 152 ΔΙΔΥΜΟΤΕΙΧΟ
962,,41.15044022,24.15225983,ΝΓΝ ΔΡΑΜΑΣ,70,2,ΝΓΝ ΔΡΑΜΑΣ (Ιπποκράτους Τέρμα - 66100 - Δράμα)
963,,40.80239868,22.05069351,ΝΓΝ ΕΔΕΣΣΑΣ,70,5,ΤΕΡΜΑ ΕΓΝΑΤΙΑΣ ΕΔΕΣΣΑ
964,,38.31975937,23.31760216,ΝΓΝ ΘΗΒΩΝ,70,8,ΘΗΒΑ 32200
965,,38.01591873,24.4226532,ΝΓΝ - ΚΥ ΚΑΡΥΣΤΟΥ,70,6,ΚΟΤΣΙΚΑ 56 ΚΑΡΥΣΤΟΣ 34001
966,,38.6554985,24.07258606,ΝΓΝ - ΚΥ ΚΕΝΤΡΟ ΥΓΕΙΑΣ KYΜΗΣ,70,6,ΚΥΜΗ 34003
967,,41.00450897,24.50050354,ΝΓΝ ΚΑΒΑΛΑΣ,70,13,"ΑΜΕΡΙΚΑΝΙΚΟΥ ΕΡΥΘΡΟΥ ΣΤΑΥΡΟΥ 277, Τ.Κ 65201 ΚΑΒΑΛΑ"
968,,39.35528564,21.90958023,ΝΓΝ ΚΑΡΔΙΤΣΑΣ,70,33,ΤΕΡΜΑ ΤΑΥΡΩΠΟΥ 43100
969,,38.91724396,21.79437065,ΝΓΝ ΚΑΡΠΕΝΗΣΙΟΥ,70,29,"Π. ΜΠΑΚΟΓΙΑΝΝΗ 2, ΚΑΡΠΕΝΗΣΙ 36100"
1441,,36.72336578,25.2822094,ΚΕΝΤΡΟ ΥΓΕΙΑΣ ΙΟΥ,64,44,84001 ΙΟΣ
970,,40.5141716,21.27629662,ΝΓΝ ΚΑΣΤΟΡΙΑΣ,70,41,"ΜΑΥΡΙΩΤΙΣΣΗΣ 22, 52100 ΚΑΣΤΟΡΙΑ"
971,,40.27310562,22.49198723,ΝΓΝ ΚΑΤΕΡΙΝΗΣ,70,36,"7ης ΜΕΡΑΡΧΙΑΣ 26, , 60100, ΚΑΤΕΡΙΝΗ"
972,,40.99005508,22.86874962,ΝΓΝ ΚΙΛΚΙΣ,70,14,"ΝΟΣΟΚΟΜΕΙΟΥ 1, 61100, ΚΙΛΚΙΣ"
973,,40.30102921,21.78596306,"ΝΓΝ ΚΟΖΑΝΗΣ ""ΜΑΜΑΤΖΕΙΟ""",70,52,"ΜΑΜΑΤΣΟΥ 1, 50100"
974,,41.11361313,25.41046333,ΝΓΝ ΚΟΜΟΤΗΝΗΣ ΣΙΣΜΑΝΟΓΛΕΙΟ,70,15,ΣΙΣΜΑΝΟΓΛΟΥ 45 ΚΟΜΟΤΗΝΗ 69100
975,,38.91564178,22.42741013,ΝΓΝ ΛΑΜΙΑΣ,70,39,"ΠΑΠΑΣΙΟΠΟΥΛΟΥ ΤΕΡΜΑ, ΛΑΜΙΑ 35300"
976,,38.43832016,22.8759613,ΝΓΝ ΛΙΒΑΔΕΙΑΣ,70,8,"Π. ΜΑΧΗΤΩΝ 19, ΤΕΡΜΑ ΑΓ. ΒΛΑΣΙΟΥ, ΛΙΒΑΔΕΙΑ"
977,,39.09194565,26.55057716,"ΝΓΝ ΜΥΤΙΛΗΝΗΣ ""ΒΟΣΤΑΝΕΙΟ""",70,26,"Ε. ΒΟΣΤΑΝΗ 48, 81100"
978,,40.6306076,22.06955147,ΝΓΝ ΝΑΟΥΣΑΣ,70,11,"ΑΦΩΝ ΛΑΝΑΡΑ & Φ. ΠΕΧΛΙΒΑΝΟΥ 3, ΝΑΟΥΣΑ 59200"
979,,35.25552368,25.60746574,ΝΓΝ ΞΑΝΘΗΣ,70,7,ΝΕΑΠΟΛΗ 67100
980,,40.54431534,21.65603065,"ΝΓΝ ΠΤΟΛΕΜΑΪΔΑΣ ""ΜΠΟΔΟΣΑΚΕΙΟ""",70,52,"Γενικό Νοσοκομείο Πτολεμαιδας Μποδοσακειο, Ptolemaida 50200, Greece"
981,,37.73524094,26.97346878,"ΝΓΝ ΣΑΜΟΥ ""ΑΓ. ΠΑΝΤΕΛΕΗΜΩΝ""",70,30,"ΣΥΝΤΑΓΜΑΤΑΡΧΗ ΚΕΦΑΛΟΠΟΥΛΟΥ 17,83100 ΣΑΜΟΣ"
982,,41.09022141,23.58146667,"ΝΓΝ ΣΕΡΡΩΝ ""ΓΡΗΓΟΡΙΟΥ""",70,45,"Γενικό Νοσοκομείο Σερρων Γρηγοριου, 62100 Σέρρες, Ελλάδα"
983,,39.54794693,21.77254677,ΝΓΝ ΤΡΙΚΑΛΩΝ,70,16,"ΚΑΡΔΙΤΣΗΣ 56, 42100"
984,,40.78229904,21.40983391,ΝΓΝ ΦΛΩΡΙΝΑΣ,70,23,"ΠΛ. ΝΟΣΟΚΟΜΕΙΟΥ 2, 53100"
985,,38.46268463,23.59648895,ΝΓΝ ΧΑΛΚΙΔΑΣ,70,6,ΓΑΖΕΠΗ 8 ΧΑΛΚΙΔΑ 34100 ΠΗΛΙΚΑ 28
986,,40.37779236,23.44024086,ΝΓΝ ΧΑΛΚΙΔΙΚΗΣ,70,20,ΠΟΛΥΓΥΡΟΣ ΧΑΛΚΙΔΙΚΗΣ
987,,38.36380386,26.13723183,"ΝΓΝ ΧΙΟΥ ""ΣΚΥΛΙΤΣΕΙΟ""",70,19,"ΕΛ. ΒΕΝΙΖΕΛΟΥ 2, 82100 ΧΙΟΣ"
988,,40.95777893,22.40530396,ΝΓΝ - ΚΥ ΓΟΥΜΕΝΙΣΣΑΣ,70,14,"ΜΑΥΡΟΠΟΥΛΟΥ 9, 61300 ΓΟΥΜΕΝΙΣΣΑ"
989,,39.87443924,25.0638504,ΝΓΝ - ΚΥ ΛΗΜΝΟΥ,70,26,ΜΥΡΙΝΑ 81400 ΛΗΜΝΟΣ
990,,38.43677139,22.87485504,ΝΟΜΑΡΧΙΑΚΗ ΑΥΤΟΔΙΟΙΚΗΣΗ ΒΟΙΩΤΙΑΣ,41,8,"ΣΟΦΟΚΛΕΟΥΣ 15, Τα.Κ 32100 ΛΕΙΒΑΔΙΑ"
991,,40.08358765,21.42619705,ΝΟΜΑΡΧΙΑΚΗ ΑΥΤΟΔΙΟΙΚΗΣΗ ΓΡΕΒΕΝΩΝ,41,10,"ΠΛΑΤΕΙΑ ΕΛΕΥΘΕΡΙΑΣ 1,  51100 ΓΡΕΒΕΝΑ"
992,,41.15044022,24.15225983,ΝΟΜΑΡΧΙΑΚΗ ΑΥΤΟΔΙΟΙΚΗΣΗ ΔΡΑΜΑΣ,41,2,"1ης ΙΟΥΛΙΟΥ, ΔΙΟΙΚΗΤΗΡΙΟ 66100 ΔΡΑΜΑ"
993,,40.84605789,25.8809967,ΝΟΜΑΡΧΙΑΚΗ ΑΥΤΟΔΙΟΙΚΗΣΗ ΕΒΡΟΥ,41,25,ΚΑΡΑΟΛΗ & ΔΗΜΗΤΡΙΟΥ 40      -68100 ΑΛΕΞ/ΠΟΛΗ
994,,38.46253586,23.59069252,ΝΟΜΑΡΧΙΑΚΗ ΑΥΤΟΔΙΟΙΚΗΣΗ ΕΥΒΟΙΑΣ,41,6,"ΕΛΕΥΘΕΡΙΟΥ ΒΕΝΙΖΕΛΟΥ 6, Τα.Κ 34100 ΧΑΛΚΙΔΑ"
995,,38.91724396,21.79437065,ΝΟΜΑΡΧΙΑΚΗ ΑΥΤΟΔΙΟΙΚΗΣΗ ΕΥΡΥΤΑΝΙΑΣ,41,29,ΔΙΟΙΚΗΤΗΡΙΟ (ΚΑΡΑΙΣΚΑΚΗ 1) 36100 ΚΑΡΠΕΝΗΣΙ
996,,40.52288055,22.20408058,ΝΟΜΑΡΧΙΑΚΗ ΑΥΤΟΔΙΟΙΚΗΣΗ ΗΜΑΘΙΑΣ,41,11,ΜΗΤΡΟΠΟΛΕΩΣ 44 59100 ΒΕΡΟΙΑ
997,,40.93650055,24.40947723,ΝΟΜΑΡΧΙΑΚΗ ΑΥΤΟΔΙΟΙΚΗΣΗ ΚΑΒΑΛΑΣ,41,13,ΕΘΝ. ΑΝΤΙΣΤΑΣΗΣ 20 -65110 ΚΑΒΑΛΑ
998,,39.36273956,21.92305946,ΝΟΜΑΡΧΙΑΚΗ ΑΥΤΟΔΙΟΙΚΗΣΗ ΚΑΡΔΙΤΣΑΣ,41,33,ΚΟΥΜΟΥΝΔΟΥΡΟΥ 29 43100 ΚΑΡΔΙΤΣΑ
1063,,39.72081757,19.72479248,ΔΗΜΟΣ ΑΓ. ΓΕΩΡΓΙΟΥ ΚΕΡΚΥΡΑΣ,13,38,ΑΓΡΟΣ 49083 ΚΕΡΚΥΡΑ
999,,40.51921844,21.26817322,ΝΟΜΑΡΧΙΑΚΗ ΑΥΤΟΔΙΟΙΚΗΣΗ ΚΑΣΤΟΡΙΑΣ,41,41,"ΜΕΓΑΛΟΥ ΑΛΕΞΑΝΔΡΟΥ 1 - ΔΙΟΙΚΗΤΗΡΙΟ, Τα.Κ 52100, ΚΑΣΤΟΡΙΑ"
1000,,40.99376297,22.87629128,ΝΟΜΑΡΧΙΑΚΗ ΑΥΤΟΔΙΟΙΚΗΣΗ ΚΙΛΚΙΣ,41,14,ΜΕΤΑΜΟΡΦΩΣΕΩΣ 2 (ΔΙΟΙΚΗΤΗΡΙΟ) 61100 ΚΙΛΚΙΣ
1001,,40.30102921,21.78596306,ΝΟΜΑΡΧΙΑΚΗ ΑΥΤΟΔΙΟΙΚΗΣΗ ΚΟΖΑΝΗΣ,41,52,"ΔΗΜΟΚΡΑΤΙΑΣ 27 (ΔΙΟΙΚΗΤΗΡΙΟ), 50100 ΚΟΖΑΝΗ"
1002,,37.66973114,22.18273163,ΔΗΜΟΣ ΒΥΤΙΝΑΣ,13,46,22010 ΒΥΤΙΝΑ ΑΡΚΑΔΙΑΣ
1003,,39.60015869,22.42020416,ΝΟΜΑΡΧΙΑΚΗ ΑΥΤΟΔΙΟΙΚΗΣΗ ΛΑΡΙΣΑΣ,41,9,ΚΟΥΜΟΥΝΔΟΥΡΟΥ & ΠΑΠΑΝΑΣΤΑΣΙΟΥ 41222 ΛΑΡΙΣΑ
1004,,39.1078949,26.55537415,ΝΟΜΑΡΧΙΑΚΗ ΑΥΤΟΔΙΟΙΚΗΣΗ ΛΕΣΒΟΥ,41,26,"ΚΟΥΝΤΟΥΡΙΩΤΗ 1, Τα.Κ 81100, Μυτιλήνη"
1005,,39.36461639,22.93321228,ΝΟΜΑΡΧΙΑΚΗ ΑΥΤΟΔΙΟΙΚΗΣΗ ΜΑΓΝΗΣΙΑΣ,41,37,"ΔΙΟΙΚΗΤΗΡΙΟ, ΙΩΛΚΟΥ ΜΕ ΑΝΑΛΗΨΕΩΣ 38100 Βόλος"
1006,,41.13592529,24.88399887,ΝΟΜΑΡΧΙΑΚΗ ΑΥΤΟΔΙΟΙΚΗΣΗ ΞΑΝΘΗΣ,41,7,"67100 ΞΑΝΘΗ, ΔΙΟΙΚΗΤΗΡΙΟ"
1007,,40.82789612,21.99994278,ΝΟΜΑΡΧΙΑΚΗ ΑΥΤΟΔΙΟΙΚΗΣΗ ΠΕΛΛΑΣ,41,5,ΔΙΟΙΚΗΤΗΡΙΟ 58200 ΕΔΕΣΣΑ
1008,,40.27148056,22.50866127,ΝΟΜΑΡΧΙΑΚΗ ΑΥΤΟΔΙΟΙΚΗΣΗ ΠΙΕΡΙΑΣ,41,36,"28ης ΟΚΤΩΒΡΙΟΥ 40,  60100 ΚΑΤΕΡΙΝΗ"
1079,,37.79616547,21.34717178,ΔΗΜΟΣ ΑΜΑΛΙΑΔΑΣ,13,28,"ΦΙΛΙΚΗΣ ΕΤΑΙΡΕΙΑΣ 6, 27200, ΑΜΑΛΙΑΔΑ"
1009,,41.11886978,25.40552711,ΝΟΜΑΡΧΙΑΚΗ ΑΥΤΟΔΙΟΙΚΗΣΗ ΡΟΔΟΠΗΣ,41,15,"ΔΗΜΟΚΡΑΤΙΑΣ 1, Τα.Κ 69100 ΚΟΜΟΤΗΝΗ"
1010,,37.73524094,26.97346878,ΝΟΜΑΡΧΙΑΚΗ ΑΥΤΟΔΙΟΙΚΗΣΗ ΣΑΜΟΥ,41,30,"ΚΑΛΟΜΟΙΡΗ 1, Τα.Κ 83100 ΣΑΜΟΣ"
1011,,41.08831024,23.54281425,ΝΟΜΑΡΧΙΑΚΗ ΑΥΤΟΔΙΟΙΚΗΣΗ ΣΕΡΡΩΝ,41,45,"ΜΕΡΑΡΧΙΑΣ 36 - ΔΙΟΙΚΗΤΗΡΙΟ, Τα.Κ 62110 ΣΕΡΡΕΣ"
1012,,39.5616188,21.76001358,ΝΟΜΑΡΧΙΑΚΗ ΑΥΤΟΔΙΟΙΚΗΣΗ ΤΡΙΚΑΛΩΝ,41,16,"Ν.Α ΤΡΙΚΑΛΩΝ, Β. ΤΣΙΤΣΑΝΗ 31, 42100, ΤΡΙΚΑΛΑ"
1013,,38.90168762,22.43224716,ΝΟΜΑΡΧΙΑΚΗ ΑΥΤΟΔΙΟΙΚΗΣΗ ΦΘΙΩΤΙΔΑΣ,41,39,"ΠΛΑΤΕΙΑ ΕΛΕΥΘΕΡΙΑΣ, 35100 ΛΑΜΙΑ"
1014,,40.78229904,21.40983391,ΝΟΜΑΡΧΙΑΚΗ ΑΥΤΟΔΙΟΙΚΗΣΗ ΦΛΩΡΙΝΑΣ,41,23,"ΠΤΟΛΕΜΑΙΩΝ 1, ΔΙΟΙΚΗΤΗΡΙΟ, 53100, ΦΛΩΡΙΝΑ"
1015,,38.52813721,22.38026237,ΝΟΜΑΡΧΙΑΚΗ ΑΥΤΟΔΙΟΙΚΗΣΗ ΦΩΚΙΔΑΣ,41,34,ΓΙΔΟΓΙΑΝΝΟΥ 31- 33100 ¶ΜΦΙΣΣΑ
1016,,40.38167953,23.50142097,ΝΟΜΑΡΧΙΑΚΗ ΑΥΤΟΔΙΟΙΚΗΣΗ ΧΑΛΚΙΔΙΚΗΣ,41,20,"ΔΙΟΙΚΗΤΗΡΙΟ Τα.Κ 63100, ΠΟΛΥΓΥΡΟΣ"
1017,,38.37159729,26.13281631,ΝΟΜΑΡΧΙΑΚΗ ΑΥΤΟΔΙΟΙΚΗΣΗ ΧΙΟΥ,41,19,"ΠΟΛΥΤΕΧΝΕΙΟΥ 1, 82100 ΧΙΟΣ"
1018,,40.93650055,24.40947723,ΠΑΙΔΟΠΟΛΗ ? ΚΑΒΑΛΑΣ (ΕΟΠ),18,13,ΤΕΡΜΑ ΙΟΚΑΣΤΗΣ 65110 ΚΑΒΑΛΑ
1019,,40.84881592,25.8731842,ΠΓΝ ΑΛΕΞΑΝΔΡΟΥΠΟΛΗΣ,70,25,ΔΡΑΓΑΝΑ 68100 ΑΛΕΞΑΝΔΡΟΥΠΟΛΗ
1020,,41.11543655,25.39806747,ΠΕΡΙΦΕΡΕΙΑ ΑΝΑΤΟΛΙΚΗΣ ΜΑΚΕΔΟΝΙΑΣ & ΘΡΑΚΗΣ,17,15,"ΚΑΚΟΥΛΙΔΟΥ 1, 69100 ΚΟΜΟΤΗΝΗ"
1021,,39.1078949,26.55537415,ΠΕΡΙΦΕΡΕΙΑ ΒΟΡΕΙΟΥ ΑΙΓΑΙΟΥ,17,26,"Π. ΚΟΥΝΤΟΥΡΙΩΤΟΥ 77, Τα.Κ 81100, ΜΥΤΙΛΗΝΗ"
1022,,40.30102921,21.78596306,ΠΕΡΙΦΕΡΕΙΑ ΔΥΤΙΚΗΣ ΜΑΚΕΔΟΝΙΑΣ,17,52,"ΠΝΕΥΜΑΤΙΚΟ ΚΕΝΤΡΟ ΚΟΖΑΝΗΣ, 50100"
1023,,39.64889526,22.43208694,ΠΕΡΙΦΕΡΕΙΑ ΘΕΣΣΑΛΙΑΣ,17,9,"ΣΩΚΡΑΤΟΥΣ 11, 41336, ΛΑΡΙΣΑ"
1024,,38.89989853,22.43334961,ΠΕΡΙΦΕΡΕΙΑ ΣΤΕΡΕΑΣ ΕΛΛΑΔΟΣ,17,39,"ΥΨΗΛΑΝΤΗ 1, ΛΑΜΙΑ"
1025,,39.63209915,22.41993523,ΠΓΝ ΛΑΡΙΣΑΣ,70,9,"ΜΕΖΟΥΡΛΟ, ΤΘ 1425 ΛΑΡΙΣΑ 411 10"
1026,,40.84881592,25.8731842,ΣΓ ΑΛΕΞΑΝΔΡΟΥΠΟΛΗΣ,56,25,"ΒΑΣ. ΑΛΕΞΑΝΔΡΟΥ 64, Τ.Κ 68100 ΑΛΕΞ/ΠΟΛΗ"
1027,,39.3678894,22.94013596,ΣΓ ΒΟΛΟΥ,56,37,"54ου ΣΥΝΤΑΓΜΑΤΟΣ ΕΛΑΣ & ΕΡΜΟΥ, Τ.Κ 38333 ΒΟΛΟΣ"
1028,,41.15044022,24.15225983,ΣΓ ΔΡΑΜΑΣ,56,2,"ΓΕΩΡΓΙΟΥ ΖΕΡΒΟΥ 38, Τ.Κ 66100 ΔΡΑΜΑ"
1029,,40.82789612,21.99994278,ΣΓ ΕΔΕΣΣΑΣ,56,5,"ΦΙΛΙΠΠΟΥ 38 (ΠΕΡΙΟΧΗ ΒΑΡΟΣΙΟΥ), Τ.Κ 58200 ΕΔΕΣΣΑ"
1064,,39.48561096,20.84964752,ΔΗΜΟΣ ΑΓ. ΔΗΜΗΤΡΙΟΥ,13,17,"ΑΓΙΑ ΚΥΡΙΑΚΗ ΘΕΡΙΑΚΗΣΙΟΥ ΙΩΑΝΝΙΝΩΝ, 45500"
1030,,41.00450897,24.50050354,ΣΓ ΚΑΒΑΛΑΣ,56,13,"ΑΜΕΡΙΚΑΝΙΚΟΥ ΕΡΥΘΡΟΥ ΣΤΑΥΡΟΥ 277, Τ.Κ 65201 ΚΑΒΑΛΑ"
1031,,39.36555862,21.92668915,ΣΓ ΚΑΡΔΙΤΣΑΣ,56,33,"ΜΠΑ'Ι'ΡΑΚΤΑΡΗ 1, Τ.Κ 43100 ΚΑΡΔΙΤΣΑ"
1032,,40.51921844,21.26817322,ΣΓ ΚΑΣΤΟΡΙΑΣ,56,41,"ΓΡΑΜΜΟΥ 225, Τ.Κ 52100 ΚΑΣΤΟΡΙΑ"
1033,,40.26733017,22.51676941,ΣΓ ΚΑΤΕΡΙΝΗΣ,56,36,"ΜΑΚΕΔΟΝΙΑΣ 8 ΠΕΡΙΣΤΑΣΗ ΠΑΡΑΛΙΑΣ ΠΙΕΡΙΑΣ, ΤΚ 60100"
1034,,41.11886978,25.40552711,ΣΓ ΚΟΜΟΤΗΝΗΣ,56,15,"ΧΑΡ. ΤΡΙΚΟΥΠΗ 28, 69100 ΚΟΜΟΤΗΝΗ"
1035,,38.89989853,22.43334961,ΣΓ ΛΑΜΙΑΣ,56,39,"ΣΤΡΔΟ «ΤΣΑΛΤAΚΗ», Τ.Κ 35 100 ΛΑΜΙΑ"
1036,,39.63209915,22.41993523,ΣΓ ΛΑΡΙΣΑΣ,56,9,"ΡΟΥΣΒΕΛΤ & ΠΑΤΡΟΚΛΟΥ 30, Τ.Κ. 412 22, Λάρισα"
1037,,38.43677139,22.87485504,ΣΓ ΛΙΒΑΔΕΙΑΣ,56,8,"ΠΕΣ. ΜΑΧΗΤΩΝ 44, Τ.Κ 32100 ΛΙΒΑΔΕΙΑ"
1038,,39.1078949,26.55537415,ΣΓ ΜΥΤΙΛΗΝΗΣ,56,26,"ΚΑΒΕΤΣΟΥ 44, Τ.Κ 81100 ΜΥΤΙΛΗΝΗ"
1039,,41.13592529,24.88399887,ΣΓ ΞΑΝΘΗΣ,56,7,"ΣΤΡΔΟ ""ΣΤΕΦΑΝΙΔΗ"", ΤΚ 67100 ΞΑΝΘΗ"
1040,,40.38167953,23.50142097,ΣΓ ΠΟΛΥΓΥΡΟΥ,56,20,"ΙΩΑΝ. ΜΕΤΑΞΑ 36, ΤΚ 63100 ΠΟΛΥΓΥΡΟΣ"
1041,,40.99376297,22.87629128,ΣΓ ΚΙΛΚΙΣ,56,14,"ΣΤΡΔΟ ""ΚΑΜΠΑΝΗ"" ΣΤΓ 920, ΚΙΛΚΙΣ"
1042,,41.08831024,23.54281425,ΣΓ ΣΕΡΡΩΝ,56,45,"ΠΡΙΓΚΗΠΟΣ ΧΡΙΣΤΟΦΟΡΟΥ 13, Τ.Κ 62122 ΣΕΡΡΕΣ"
1043,,39.5616188,21.76001358,ΣΓ ΤΡΙΚΑΛΩΝ,56,16,"ΣΤΡΔΟ «Τ/ΧΟΥ ΠΟΥΛΙΟΥ», Τ.Κ 42100 ΤΡΙΚΑΛΑ"
1044,,40.78229904,21.40983391,ΣΓ ΦΛΩΡΙΝΑΣ,56,23,"ΣΤΡΔΟ «ΣΚΙΑΔΟΠΟΥΛΟΥ», Τ.Κ 53100 ΦΛΩΡΙΝΑ"
1045,,38.46253586,23.59069252,ΣΓ ΧΑΛΚΙΔΑΣ,56,6,"ΑΝΤΩΝΙΟΥ 7, Τ.Κ 34100 ΧΑΛΚΙΔΑ"
1046,,38.36380386,26.13723183,ΣΓ ΧΙΟΥ,56,19,"ΣΤΡΔΟ «ΣΑΛΕΛΕ», Γ. Κονδύλη 10, Τ.Κ 82 100 ΧΙΟΣ"
1047,,40.52288055,22.20408058,ΤΕΔΚ ΗΜΑΘΙΑΣ,43,11,ΜΗΤΡΟΠΟΛΕΩΣ 44 59100 ΗΜΑΘΙΑ
1048,,39.10944366,26.56081963,ΥΠ. ΑΙΓΑΙΟΥ,27,26,"ΜΙΚΡΑΣ ΑΣΙΑΣ 2, 81100 ΜΥΤΙΛΗΝΗ"
1049,,40.63935089,22.94460678,ΥΠΟΥΡΓΕΙΟ ΜΑΚΕΔΟΝΙΑΣ - ΘΡΑΚΗΣ - ΓΕΝΙΚΗ ΓΡΑΜΜΑΤΕΙΑ ΠΑΛΙΝΝΟΣΤΟΥΝΤΩΝ ΟΜΟΓΕΝΩΝ,27,27,ΔΙΟΙΚΗΤΗΡΙΟ 54123 ΘΕΣΣΑΛΟΝΙΚΗ
1050,,37.75902176,26.97490692,ΥΠΟΥΡΓΕΙΟ ΑΙΓΑΙΟΥ - ΣΑΜΟΣ,27,30,"Κ. ΣΤΑΜΑΤΗ 3, ΒΑΘΥ 83100 ΣΑΜΟΣ"
1052,,38.36380386,26.13723183,ΥΠΟΥΡΓΕΙΟ ΑΙΓΑΙΟΥ - ΧΙΟΣ,27,19,"Γ. ΣΟΥΡΗ 1, 82100 ΧΙΟΣ"
1053,,38.03804016,23.69225883,ΨΥΧΙΑΤΡΙΚΟ ΠΕΤΡΑΣ ΟΛΥΜΠΟΥ,70,36,25ης ΜΑΡΤΙΟΥ 102
1054,,38.24188232,21.72805214,3η ΔΙΟΙΚΗΣΗ ΣΤΡΑΤΟΛΟΓΙΑΣ,56,49,"ΕΥΜΗΛΟΥ 8, 26222 Πάτρα"
1055,,39.6744957,20.8401413,4η ΔΙΕΥΘΥΝΣΗ ΣΤΡΑΤΟΛΟΓΙΑΣ,56,17,"ΛΕΩΦ. ΔΩΔΩΝΗΣ 39,  452 21, ΙΩΑΝΝΙΝΑ"
1056,,36.44323349,28.22700691,Β' ΠΕΣ.Υ. ΝΟΤΙΟΥ ΑΙΓΑΙΟΥ,66,18,ΠΑΠΑΛΟΥΚΑ (ΕΞΩΤΕΡΙΚΑ ΙΑΤΡΕΙΑ ΠΑΛΑΙΟΥ ΝΟΣΟΣΚΟΜΕΙΟΥ) ΡΟΔΟΣ 85100
1057,,38.2544632,21.73706627,Δ.Α. ΔΥΤΙΚΗΣ ΕΛΛΑΔΑΣ,28,49,"Ν.Ε.Ο. ΠΑΤΡΩΝ - ΑΘΗΝΩΝ 28, ΠΑΤΡΑ"
1058,,39.6744957,20.8401413,Δ.Α. ΗΠΕΙΡΟΥ,28,17,"ΒΟΡ. ΗΠΕΙΡΟΥ 20, ΙΩΑΝΝΙΝΑ"
1059,,39.61930084,19.91958427,Δ.Α ΠΕΠ ΙΟΝΙΩΝ ΝΗΣΩΝ,28,38,"ΕΘΝ. ΠΑΛΑΙΟΚΑΣΤΡΙΤΣΑΣ - ΑΛΥΚΕΣ  ΠΟΤΑΜΟΥ, ΚΕΡΚΥΡΑ"
1060,,37.44018555,24.940382,Δ.Α ΝΟΤΙΟΥ ΑΙΓΑΙΟΥ,28,44,"ΑΚΤΗ ΠΑΠΑΓΟΥ 46, ΕΡΜΟΥΠΟΛΗ, ΣΥΡΟΣ"
1061,,37.50979614,22.37286949,Δ.Α. ΠΕΛΟΠΟΝΝΗΣΟΥ,28,46,ΤΕΡΜΑ ΕΡ. ΣΤΑΥΡΟΥ ΤΡΙΠΟΛΗ
1062,,36.93797684,22.20423889,ΔΗΜΟΣ ΑΒΙΑΣ,13,32,"ΚΑΜΠΟΣ ΑΒΙΑΣ, 24016"
1065,,37.9584198,23.08459282,ΔΗΜΟΣ ΑΓ. ΘΕΟΔΩΡΩΝ,13,40,ΑΓΙΟΙ ΘΕΟΔΩΡΟΙ ΠΕΟΑΚ 20003
1066,,37.74416733,23.00583267,ΔΗΜΟΣ ΑΓΓΕΛΟΚΑΣΤΡΟΥ,13,42,30400 ΑΓΓΕΛΟΚΑΣΤΡΟ
1067,,39.45548248,21.03442764,ΔΗΜΟΣ ΑΓΝΑΝΤΩΝ,13,31,"ΑΓΝΑΝΤΑ ΑΡΤΑΣ, 47043"
1068,,38.62365341,21.40956116,ΔΗΜΟΣ ΑΓΡΙΝΙΟΥ,13,42,"ΧΑΡΙΛΑΟΥ ΤΡΙΚΟΥΠΗ 10, 30100 ΑΓΡΙΝΙΟ"
1069,,37.2705574,21.86861038,ΔΗΜΟΣ ΑΕΤΟΥ,13,32,"ΚΟΠΑΝΑΚΙ ΜΕΣΣΗΝΙΑΣ, 240 03"
1070,,39.36177063,21.18567657,ΔΗΜΟΣ ΑΘΑΜΑΝΙΑΣ,13,31,ΒΟΥΡΓΑΡΕΛΙ ΑΡΤΑΣ 47045
1071,,37.98694611,22.27361107,ΔΗΜΟΣ ΑΙΓΕΙΡΑΣ,13,49,"ΑΙΓΕΙΡΑ ΑΧΑΪΑΣ, 25010"
1072,,38.25,22.08333397,ΔΗΜΟΣ ΑΙΓΙΟΥ,13,49,"ΑΝΔΡΕΟΥ ΛΟΝΤΟΥ 34, 25100"
1073,,36.86899185,21.90534592,ΔΗΜΟΣ ΑΙΠΕΙΑΣ,13,32,"ΔΗΜΟΣ ΑΙΠΕΙΑΣ, ΛΟΓΓΑ ΜΕΣΣΗΝΙΑΣ, 24010"
1074,,38.43807983,21.35364723,ΔΗΜΟΣ ΑΙΤΩΛΙΚΟΥ,13,42,"ΠΛΑΤΕΙΑ ΓΡΗΓΟΡΙΟΥ ΛΙΑΚΑΤΑ 1, ΑΙΤΩΛΙΚΟ 30400"
1075,,37.99432373,22.26224518,ΔΗΜΟΣ ΑΚΡΑΤΑΣ,13,49,25006 ΑΚΡΑΤΑ
1076,,37.55156326,21.82073593,ΔΗΜΟΣ ΑΛΙΦΕΙΡΑΣ,13,28,"ΚΑΛΛΙΘΕΑ ΗΛΕΙΑΣ, 27062"
1077,,38.66748428,20.94488716,ΔΗΜΟΣ ΑΛΥΖΙΑΣ,13,42,ΚΑΝΔΗΛΑ ΑΙΤΩΛ/ΝΙΑΣ 30019 ΜΥΤΙΚΑΣ
1078,,37.82382965,20.77184677,ΔΗΜΟΣ ΑΛΥΚΩΝ,13,4,"ΔΗΜΑΡΧΕΙΟ ΔΗΜΟΥ ΑΛΥΚΩΝ, ΚΑΤΑΣΤΑΡΙ 29090, ΖΑΚΥΝΘΟΣ"
1081,,36.83195114,25.89788818,ΔΗΜΟΣ ΑΜΟΡΓΟΥ,13,44,ΧΩΡΑ ΑΜΟΡΓΟΥ 84008 ΑΜΟΡΓΟΣ
1082,,38.85779953,21.16456413,ΔΗΜΟΣ ΑΜΦΙΛΟΧΙΑΣ,13,42,"Γ. ΣΤΡΑΤΟΥ 5, 30500"
1083,,38.89408112,20.92682076,ΔΗΜΟΣ ΑΝΑΚΤΟΡΙΟΥ,13,42,"ΕΠΑΜ. ΔΕΛΗΓΙΩΡΓΗ 2, ΒΟΝΙΤΣΑ, 300 02"
1084,,39.73295212,20.96395302,ΔΗΜΟΣ ΑΝΑΤ. ΖΑΓΟΡΙΟΥ,13,17,"ΜΗΛΙΩΤΑΔΕΣ 45500, ΑΝΑΤΟΛΙΚΟ ΖΑΓΟΡΙ"
1085,,36.67222214,22.46194458,ΔΗΜΟΣ ΑΝΑΤ. ΜΑΝΗΣ,13,12,ΚΟΤΡΩΝΑΣ ΛΑΚΩΝΙΑΣ 23066
1086,,39.63930893,20.86625481,ΔΗΜΟΣ ΑΝΑΤΟΛΗΣ,13,17,"ΚΕΡΑΣΠΟΥΝΤΟΣ 13, 45500, ΑΝΑΤΟΛΗ ΙΩΑΝΝΙΝΩΝ"
1087,,37.29795837,21.96739197,ΔΗΜΟΣ ΑΝΔΑΝΙΑΣ,13,32,ΔΙΑΒΟΛΙΤΣΗ 24008
1088,,37.9132309,21.27257919,ΔΗΜΟΣ ΑΝΔΡΑΒΙΔΑΣ,13,28,Ε. ΒΕΝΙΖΕΛΟΥ & Π. ΠΑΥΛΟΥ ΑΝΔΡΑΒΙΔΑ 27051
1089,,37.83715057,24.93689728,ΔΗΜΟΣ ΑΝΔΡΟΥ,13,44,"ΑΝΔΡΟΣ ΚΥΚΛΑΔΩΝ, 84500"
1090,,37.10945511,21.94371414,ΔΗΜΟΣ ΑΝΔΡΟΥΣΗΣ,13,32,"ΠΛΑΤΕΙΑ ΔΗΜΑΡΧΟΥ, 24013 ΑΝΔΡΟΥΣΑ"
1091,,38.34724808,21.71477127,ΔΗΜΟΣ ΑΝΤΙΡΙΟΥ,13,42,"ΔΗΜΟΣ ΑΝΤΙΡΡΙΟΥ, 30020, ΑΙΤΩΛΟΑΚΑΡΝΑΝΙΑ"
1092,,39.87386703,20.64162827,ΔΗΜΟΣ ΑΝΩ ΚΑΛΑΜΑ,13,17,ΠΑΡΑΚΑΛΑΜΟΣ ΙΩΑΝΝΙΝΩΝ 44004 (ΔΟΛΙΑΝΑ)
1093,,40.01422882,20.55905914,ΔΗΜΟΣ ΑΝΩ ΠΩΓΩΝΙΟΥ,13,17,44006 ΚΕΦΑΛΟΒΡΥΣΟ
1094,,37.4489975,24.93711853,ΔΗΜΟΣ ΑΝΩ ΣΥΡΟΥ,13,44,ΔΟΝ. ΙΩΑΝΝΟΥ ΣΤΕΦΑΝΟΥ 7 ΑΝΩ ΣΥΡΟΣ 84100 ΣΥΡΟΣ
1095,,39.20396042,20.88114357,ΔΗΜΟΣ ΑΝΩΓΕΙΟΥ,13,21,ΓΟΡΓΟΜΥΛΟΣ ΦΙΛΙΠΠΙΑΔΑ 48200
1096,,38.59117508,21.92362976,ΔΗΜΟΣ ΑΠΟΔΟΤΙΑΣ,13,42,"ΑΝΩ ΧΩΡΑ, 30023"
1097,,38.52815628,21.44989014,ΔΗΜΟΣ ΑΡΑΚΥΝΘΟΥ,13,42,ΠΑΠΑΔΑΤΕΣ 30011
1098,,39.07727814,21.02074432,ΔΗΜΟΣ ΑΡΑΧΘΟΥ,13,31,"ΝΕΟΧΩΡΙ ΑΡΤΑΣ, 47041"
1099,,38.17932129,20.4880352,ΔΗΜΟΣ ΑΡΓΟΣΤΟΛΙΟΥ,13,47,ΠΛΑΤΕΙΑ ΒΑΛΛΙΑΝΟΥ 28100 ΑΡΓΟΣΤΟΛΙ
1100,,37.63484955,22.72892189,ΔΗΜΟΣ ΑΡΓΟΥΣ,13,35,"ΔΑΝΑΟΥ 3, 21200 ΑΡΓΟΣ"
1101,,37.04243469,22.10637665,ΔΗΜΟΣ ΑΡΙΟΣ,13,32,ΔΗΜΑΡΧΕΙΟ ΔΗΜΟΣ ΑΡΙΟΣ 24009
1102,,37.08671951,21.83964539,ΔΗΜΟΣ ΑΡΙΣΤΟΜΕΝΟΥΣ,13,32,"ΑΡΙΣΤΟΜΕΝΗ ΜΕΣΣΗΝΙΑΣ, 24015"
1103,,37.86586761,21.9042263,ΔΗΜΟΣ ΑΡΟΑΝΙΑΣ,13,49,"ΤΡΙΠΟΤΑΜΑ, 25004 ΑΧΑΪΑΣ"
1104,,39.1558075,20.98009682,ΔΗΜΟΣ ΑΡΤΑΙΩΝ,13,31,"ΠΕΡΙΦΕΡΕΙΑΚΗ ΟΔΟΣ ΚΑΙ ΑΥΞΕΝΤΙΟΥ, ΑΡΤΑ"
1105,,37.75045013,20.7837677,ΔΗΜΟΣ ΑΡΤΕΜΙΣΙΩΝ,13,4,ΜΑΧΑΙΡΑΔΟ 29092 ΖΑΚΥΝΘΟΥ
1106,,37.15608978,22.04454422,ΔΗΜΟΣ ΑΡΦΑΡΩΝ,13,32,"ΠΑΠΑΦΛΕΣΣΑ 58, ΑΡΦΑΡΑ ΜΕΣΣΗΝΙΑΣ"
1107,,36.21430588,28.11611938,ΔΗΜΟΣ ΑΡΧΑΓΓΕΛΟΥ,13,18,ΑΡΧΑΓΓΕΛΟΣ 85102 ΡΟΔΟΣ
1108,,37.64855194,21.62728691,ΔΗΜΟΣ ΑΡΧΑΙΑΣ ΟΛΥΜΠΙΑΣ,13,28,"ΧΑΡ. ΚΟΣΜΟΠΟΥΛΟΥ 1, ΑΡΧΑΙΑ ΟΛΥΜΠΙΑ 27065"
1109,,39.51813126,20.19576073,ΔΗΜΟΣ ΑΣΙΝΗΣ,13,35,ΔΡΕΠΑΝΟ
1110,,37.61244583,23.03582001,ΔΗΜΟΣ ΑΣΚΛΗΠΙΕΙΟΥ,13,35,"ΠΛΑΤΕΙΑ ΚΑΡΑΙΣΚΑΚΗ, ΛΥΓΟΥΡΙΟ 21052"
